[
{"id":"1","active":"1","created_at":"2019-10-05 23:18:35.000000","updated_at":"2022-08-31 15:52:51.000000","deleted_at":null,"name":"Southern Nations, Nationalities, and Peoples' Region","country_id":"70","fips_code":"54","iso2":"SN","type":null,"latitude":"6.51569110","longitude":"36.95410700","flag":"1","wikiDataId":"Q203193","user_create_id":null,"user_update_id":null,"country_code":"ET"},
{"id":"2","active":"1","created_at":"2019-10-05 23:18:35.000000","updated_at":"2022-08-31 15:52:51.000000","deleted_at":null,"name":"Somali Region","country_id":"70","fips_code":"52","iso2":"SO","type":null,"latitude":"6.66122930","longitude":"43.79084530","flag":"1","wikiDataId":"Q202800","user_create_id":null,"user_update_id":null,"country_code":"ET"},
{"id":"3","active":"1","created_at":"2019-10-05 23:18:35.000000","updated_at":"2022-08-31 15:52:51.000000","deleted_at":null,"name":"Amhara Region","country_id":"70","fips_code":"46","iso2":"AM","type":null,"latitude":"11.34942470","longitude":"37.97845850","flag":"1","wikiDataId":"Q203009","user_create_id":null,"user_update_id":null,"country_code":"ET"},
{"id":"4","active":"1","created_at":"2019-10-05 23:18:35.000000","updated_at":"2022-08-31 15:52:51.000000","deleted_at":null,"name":"Tigray Region","country_id":"70","fips_code":"53","iso2":"TI","type":null,"latitude":"14.03233360","longitude":"38.31657250","flag":"1","wikiDataId":"Q200127","user_create_id":null,"user_update_id":null,"country_code":"ET"},
{"id":"5","active":"1","created_at":"2019-10-05 23:18:35.000000","updated_at":"2022-08-31 15:52:51.000000","deleted_at":null,"name":"Oromia Region","country_id":"70","fips_code":"51","iso2":"OR","type":null,"latitude":"7.54603770","longitude":"40.63468510","flag":"1","wikiDataId":"Q202107","user_create_id":null,"user_update_id":null,"country_code":"ET"},
{"id":"6","active":"1","created_at":"2019-10-05 23:18:35.000000","updated_at":"2022-08-31 15:52:51.000000","deleted_at":null,"name":"Afar Region","country_id":"70","fips_code":"45","iso2":"AF","type":null,"latitude":"11.75593880","longitude":"40.95868800","flag":"1","wikiDataId":"Q193494","user_create_id":null,"user_update_id":null,"country_code":"ET"},
{"id":"7","active":"1","created_at":"2019-10-05 23:18:35.000000","updated_at":"2022-08-31 15:52:51.000000","deleted_at":null,"name":"Harari Region","country_id":"70","fips_code":"50","iso2":"HA","type":null,"latitude":"9.31486600","longitude":"42.19677160","flag":"1","wikiDataId":"Q1033855","user_create_id":null,"user_update_id":null,"country_code":"ET"},
{"id":"8","active":"1","created_at":"2019-10-05 23:18:35.000000","updated_at":"2022-08-31 15:52:51.000000","deleted_at":null,"name":"Dire Dawa","country_id":"70","fips_code":"48","iso2":"DD","type":null,"latitude":"9.60087470","longitude":"41.85014200","flag":"1","wikiDataId":"Q193486","user_create_id":null,"user_update_id":null,"country_code":"ET"},
{"id":"9","active":"1","created_at":"2019-10-05 23:18:35.000000","updated_at":"2022-08-31 15:52:51.000000","deleted_at":null,"name":"Benishangul-Gumuz Region","country_id":"70","fips_code":"47","iso2":"BE","type":null,"latitude":"10.78028890","longitude":"35.56578620","flag":"1","wikiDataId":"Q207635","user_create_id":null,"user_update_id":null,"country_code":"ET"},
{"id":"10","active":"1","created_at":"2019-10-05 23:18:35.000000","updated_at":"2022-08-31 15:52:51.000000","deleted_at":null,"name":"Gambela Region","country_id":"70","fips_code":"49","iso2":"GA","type":null,"latitude":"7.92196870","longitude":"34.15319470","flag":"1","wikiDataId":"Q207638","user_create_id":null,"user_update_id":null,"country_code":"ET"},
{"id":"11","active":"1","created_at":"2019-10-05 23:18:35.000000","updated_at":"2022-08-31 15:52:51.000000","deleted_at":null,"name":"Addis Ababa","country_id":"70","fips_code":"44","iso2":"AA","type":null,"latitude":"8.98060340","longitude":"38.75776050","flag":"1","wikiDataId":"Q3624","user_create_id":null,"user_update_id":null,"country_code":"ET"},
{"id":"12","active":"1","created_at":"2019-10-05 23:18:35.000000","updated_at":"2022-08-31 15:52:51.000000","deleted_at":null,"name":"Petnjica Municipality","country_id":"147","fips_code":"23","iso2":"23","type":null,"latitude":"42.93534800","longitude":"20.02114490","flag":"1","wikiDataId":"Q15630696","user_create_id":null,"user_update_id":null,"country_code":"ME"},
{"id":"13","active":"1","created_at":"2019-10-05 23:18:35.000000","updated_at":"2022-08-31 15:52:51.000000","deleted_at":null,"name":"Bar Municipality","country_id":"147","fips_code":"02","iso2":"02","type":null,"latitude":"42.12781190","longitude":"19.14043800","flag":"1","wikiDataId":"Q2604068","user_create_id":null,"user_update_id":null,"country_code":"ME"},
{"id":"14","active":"1","created_at":"2019-10-05 23:18:35.000000","updated_at":"2022-08-31 15:52:51.000000","deleted_at":null,"name":"Danilovgrad Municipality","country_id":"147","fips_code":"07","iso2":"07","type":null,"latitude":"42.58357000","longitude":"19.14043800","flag":"1","wikiDataId":"Q3741507","user_create_id":null,"user_update_id":null,"country_code":"ME"},
{"id":"15","active":"1","created_at":"2019-10-05 23:18:35.000000","updated_at":"2022-08-31 15:52:51.000000","deleted_at":null,"name":"Rožaje Municipality","country_id":"147","fips_code":"17","iso2":"17","type":null,"latitude":"42.84083890","longitude":"20.16706280","flag":"1","wikiDataId":"Q3296677","user_create_id":null,"user_update_id":null,"country_code":"ME"},
{"id":"16","active":"1","created_at":"2019-10-05 23:18:35.000000","updated_at":"2022-08-31 15:52:51.000000","deleted_at":null,"name":"Plužine Municipality","country_id":"147","fips_code":"15","iso2":"15","type":null,"latitude":"43.15933840","longitude":"18.85514840","flag":"1","wikiDataId":"Q4864476","user_create_id":null,"user_update_id":null,"country_code":"ME"},
{"id":"17","active":"1","created_at":"2019-10-05 23:18:35.000000","updated_at":"2022-08-31 15:52:51.000000","deleted_at":null,"name":"Nikšić Municipality","country_id":"147","fips_code":"12","iso2":"12","type":null,"latitude":"42.79971840","longitude":"18.76009630","flag":"1","wikiDataId":"Q4865016","user_create_id":null,"user_update_id":null,"country_code":"ME"},
{"id":"18","active":"1","created_at":"2019-10-05 23:18:35.000000","updated_at":"2022-08-31 15:52:51.000000","deleted_at":null,"name":"Šavnik Municipality","country_id":"147","fips_code":"18","iso2":"18","type":null,"latitude":"42.96037560","longitude":"19.14043800","flag":"1","wikiDataId":"Q13365880","user_create_id":null,"user_update_id":null,"country_code":"ME"},
{"id":"19","active":"1","created_at":"2019-10-05 23:18:35.000000","updated_at":"2022-08-31 15:52:51.000000","deleted_at":null,"name":"Plav Municipality","country_id":"147","fips_code":"13","iso2":"13","type":null,"latitude":"42.60013370","longitude":"19.94075410","flag":"1","wikiDataId":"Q4859821","user_create_id":null,"user_update_id":null,"country_code":"ME"},
{"id":"20","active":"1","created_at":"2019-10-05 23:18:35.000000","updated_at":"2022-08-31 15:52:51.000000","deleted_at":null,"name":"Pljevlja Municipality","country_id":"147","fips_code":"14","iso2":"14","type":null,"latitude":"43.27233830","longitude":"19.28315310","flag":"1","wikiDataId":"Q3299950","user_create_id":null,"user_update_id":null,"country_code":"ME"},
{"id":"21","active":"1","created_at":"2019-10-05 23:18:35.000000","updated_at":"2022-08-31 15:52:51.000000","deleted_at":null,"name":"Berane Municipality","country_id":"147","fips_code":"03","iso2":"03","type":null,"latitude":"42.82572890","longitude":"19.90205090","flag":"1","wikiDataId":"Q4853794","user_create_id":null,"user_update_id":null,"country_code":"ME"},
{"id":"22","active":"1","created_at":"2019-10-05 23:18:35.000000","updated_at":"2022-08-31 15:52:51.000000","deleted_at":null,"name":"Mojkovac Municipality","country_id":"147","fips_code":"11","iso2":"11","type":null,"latitude":"42.96880180","longitude":"19.52110630","flag":"1","wikiDataId":"Q3299782","user_create_id":null,"user_update_id":null,"country_code":"ME"},
{"id":"23","active":"1","created_at":"2019-10-05 23:18:35.000000","updated_at":"2022-08-31 15:52:51.000000","deleted_at":null,"name":"Andrijevica Municipality","country_id":"147","fips_code":"01","iso2":"01","type":null,"latitude":"42.73624770","longitude":"19.78595560","flag":"1","wikiDataId":"Q2384773","user_create_id":null,"user_update_id":null,"country_code":"ME"},
{"id":"24","active":"1","created_at":"2019-10-05 23:18:35.000000","updated_at":"2022-08-31 15:52:51.000000","deleted_at":null,"name":"Gusinje Municipality","country_id":"147","fips_code":"22","iso2":"22","type":null,"latitude":"42.55634550","longitude":"19.83060510","flag":"1","wikiDataId":"Q16085370","user_create_id":null,"user_update_id":null,"country_code":"ME"},
{"id":"25","active":"1","created_at":"2019-10-05 23:18:35.000000","updated_at":"2022-08-31 15:52:51.000000","deleted_at":null,"name":"Bijelo Polje Municipality","country_id":"147","fips_code":"04","iso2":"04","type":null,"latitude":"43.08465260","longitude":"19.71154720","flag":"1","wikiDataId":"Q4086488","user_create_id":null,"user_update_id":null,"country_code":"ME"},
{"id":"26","active":"1","created_at":"2019-10-05 23:18:35.000000","updated_at":"2022-08-31 15:52:51.000000","deleted_at":null,"name":"Kotor Municipality","country_id":"147","fips_code":"10","iso2":"10","type":null,"latitude":"42.57402610","longitude":"18.64131450","flag":"1","wikiDataId":"Q4856305","user_create_id":null,"user_update_id":null,"country_code":"ME"},
{"id":"27","active":"1","created_at":"2019-10-05 23:18:35.000000","updated_at":"2022-08-31 15:52:51.000000","deleted_at":null,"name":"Podgorica Municipality","country_id":"147","fips_code":"16","iso2":"16","type":null,"latitude":"42.36938340","longitude":"19.28315310","flag":"1","wikiDataId":"Q3305250","user_create_id":null,"user_update_id":null,"country_code":"ME"},
{"id":"28","active":"1","created_at":"2019-10-05 23:18:35.000000","updated_at":"2022-08-31 15:52:51.000000","deleted_at":null,"name":"Old Royal Capital Cetinje","country_id":"147","fips_code":"16","iso2":"06","type":null,"latitude":"42.39309590","longitude":"18.91159640","flag":"1","wikiDataId":"Q3305075","user_create_id":null,"user_update_id":null,"country_code":"ME"},
{"id":"29","active":"1","created_at":"2019-10-05 23:18:35.000000","updated_at":"2022-08-31 15:52:51.000000","deleted_at":null,"name":"Tivat Municipality","country_id":"147","fips_code":"19","iso2":"19","type":null,"latitude":"42.42348000","longitude":"18.71851840","flag":"1","wikiDataId":"Q3738564","user_create_id":null,"user_update_id":null,"country_code":"ME"},
{"id":"30","active":"1","created_at":"2019-10-05 23:18:35.000000","updated_at":"2022-08-31 15:52:51.000000","deleted_at":null,"name":"Budva Municipality","country_id":"147","fips_code":"05","iso2":"05","type":null,"latitude":"42.31407200","longitude":"18.83138320","flag":"1","wikiDataId":"Q3739214","user_create_id":null,"user_update_id":null,"country_code":"ME"},
{"id":"31","active":"1","created_at":"2019-10-05 23:18:35.000000","updated_at":"2022-08-31 15:52:51.000000","deleted_at":null,"name":"Kolašin Municipality","country_id":"147","fips_code":"09","iso2":"09","type":null,"latitude":"42.76019160","longitude":"19.42591140","flag":"1","wikiDataId":"Q3303233","user_create_id":null,"user_update_id":null,"country_code":"ME"},
{"id":"32","active":"1","created_at":"2019-10-05 23:18:35.000000","updated_at":"2022-08-31 15:52:51.000000","deleted_at":null,"name":"Žabljak Municipality","country_id":"147","fips_code":"21","iso2":"21","type":null,"latitude":"43.15551520","longitude":"19.12260180","flag":"1","wikiDataId":"Q3304454","user_create_id":null,"user_update_id":null,"country_code":"ME"},
{"id":"33","active":"1","created_at":"2019-10-05 23:18:35.000000","updated_at":"2022-08-31 15:52:51.000000","deleted_at":null,"name":"Ulcinj Municipality","country_id":"147","fips_code":"20","iso2":"20","type":null,"latitude":"41.96527950","longitude":"19.30694320","flag":"1","wikiDataId":"Q3305169","user_create_id":null,"user_update_id":null,"country_code":"ME"},
{"id":"34","active":"1","created_at":"2019-10-05 23:18:35.000000","updated_at":"2022-08-31 15:52:51.000000","deleted_at":null,"name":"Kunene Region","country_id":"152","fips_code":"32","iso2":"KU","type":null,"latitude":"-19.40863170","longitude":"13.91439900","flag":"1","wikiDataId":"Q834513","user_create_id":null,"user_update_id":null,"country_code":"NA"},
{"id":"35","active":"1","created_at":"2019-10-05 23:18:35.000000","updated_at":"2022-08-31 15:52:51.000000","deleted_at":null,"name":"Kavango West Region","country_id":"152","fips_code":"41","iso2":"KW","type":null,"latitude":"-18.27104800","longitude":"18.42760470","flag":"1","wikiDataId":"Q14824027","user_create_id":null,"user_update_id":null,"country_code":"NA"},
{"id":"36","active":"1","created_at":"2019-10-05 23:18:35.000000","updated_at":"2022-08-31 15:52:51.000000","deleted_at":null,"name":"Kavango East Region","country_id":"152","fips_code":"40","iso2":"KE","type":null,"latitude":"-18.27104800","longitude":"18.42760470","flag":"1","wikiDataId":"Q14824032","user_create_id":null,"user_update_id":null,"country_code":"NA"},
{"id":"37","active":"1","created_at":"2019-10-05 23:18:35.000000","updated_at":"2022-08-31 15:52:51.000000","deleted_at":null,"name":"Oshana Region","country_id":"152","fips_code":"37","iso2":"ON","type":null,"latitude":"-18.43050640","longitude":"15.68817880","flag":"1","wikiDataId":"Q534528","user_create_id":null,"user_update_id":null,"country_code":"NA"},
{"id":"38","active":"1","created_at":"2019-10-05 23:18:35.000000","updated_at":"2022-08-31 15:52:51.000000","deleted_at":null,"name":"Hardap Region","country_id":"152","fips_code":"30","iso2":"HA","type":null,"latitude":"-24.23101340","longitude":"17.66888700","flag":"1","wikiDataId":"Q752676","user_create_id":null,"user_update_id":null,"country_code":"NA"},
{"id":"39","active":"1","created_at":"2019-10-05 23:18:35.000000","updated_at":"2022-08-31 15:52:51.000000","deleted_at":null,"name":"Omusati Region","country_id":"152","fips_code":"36","iso2":"OS","type":null,"latitude":"-18.40702940","longitude":"14.84546190","flag":"1","wikiDataId":"Q764385","user_create_id":null,"user_update_id":null,"country_code":"NA"},
{"id":"40","active":"1","created_at":"2019-10-05 23:18:35.000000","updated_at":"2022-08-31 15:52:51.000000","deleted_at":null,"name":"Ohangwena Region","country_id":"152","fips_code":"33","iso2":"OW","type":null,"latitude":"-17.59792910","longitude":"16.81783770","flag":"1","wikiDataId":"Q845702","user_create_id":null,"user_update_id":null,"country_code":"NA"},
{"id":"41","active":"1","created_at":"2019-10-05 23:18:35.000000","updated_at":"2022-08-31 15:52:51.000000","deleted_at":null,"name":"Omaheke Region","country_id":"152","fips_code":"35","iso2":"OH","type":null,"latitude":"-21.84666510","longitude":"19.18800470","flag":"1","wikiDataId":"Q838775","user_create_id":null,"user_update_id":null,"country_code":"NA"},
{"id":"42","active":"1","created_at":"2019-10-05 23:18:35.000000","updated_at":"2022-08-31 15:52:51.000000","deleted_at":null,"name":"Oshikoto Region","country_id":"152","fips_code":"38","iso2":"OT","type":null,"latitude":"-18.41525750","longitude":"16.91225100","flag":"1","wikiDataId":"Q876512","user_create_id":null,"user_update_id":null,"country_code":"NA"},
{"id":"43","active":"1","created_at":"2019-10-05 23:18:35.000000","updated_at":"2022-08-31 15:52:51.000000","deleted_at":null,"name":"Erongo Region","country_id":"152","fips_code":"29","iso2":"ER","type":null,"latitude":"-22.25656820","longitude":"15.40680790","flag":"1","wikiDataId":"Q648753","user_create_id":null,"user_update_id":null,"country_code":"NA"},
{"id":"44","active":"1","created_at":"2019-10-05 23:18:35.000000","updated_at":"2022-08-31 15:52:51.000000","deleted_at":null,"name":"Khomas Region","country_id":"152","fips_code":"21","iso2":"KH","type":null,"latitude":"-22.63778540","longitude":"17.10119310","flag":"1","wikiDataId":"Q834508","user_create_id":null,"user_update_id":null,"country_code":"NA"},
{"id":"45","active":"1","created_at":"2019-10-05 23:18:35.000000","updated_at":"2022-08-31 15:52:51.000000","deleted_at":null,"name":"Karas Region","country_id":"152","fips_code":"31","iso2":"KA","type":null,"latitude":"-26.84296450","longitude":"17.29028390","flag":"1","wikiDataId":"Q573467","user_create_id":null,"user_update_id":null,"country_code":"NA"},
{"id":"46","active":"1","created_at":"2019-10-05 23:18:36.000000","updated_at":"2022-08-31 15:52:51.000000","deleted_at":null,"name":"Otjozondjupa Region","country_id":"152","fips_code":"39","iso2":"OD","type":null,"latitude":"-20.54869160","longitude":"17.66888700","flag":"1","wikiDataId":"Q876506","user_create_id":null,"user_update_id":null,"country_code":"NA"},
{"id":"47","active":"1","created_at":"2019-10-05 23:18:36.000000","updated_at":"2022-08-31 15:52:51.000000","deleted_at":null,"name":"Zambezi Region","country_id":"152","fips_code":"28","iso2":"CA","type":null,"latitude":"-17.81934190","longitude":"23.95364660","flag":"1","wikiDataId":"Q473190","user_create_id":null,"user_update_id":null,"country_code":"NA"},
{"id":"48","active":"1","created_at":"2019-10-05 17:48:36.000000","updated_at":"2021-10-30 16:08:55.000000","deleted_at":null,"name":"Ashanti","country_id":"83","fips_code":"02","iso2":"AH","type":"region","latitude":"6.74704360","longitude":"-1.52086240","flag":"1","wikiDataId":"Q398417","user_create_id":null,"user_update_id":null,"country_code":"GH"},
{"id":"49","active":"1","created_at":"2019-10-05 17:48:36.000000","updated_at":"2021-10-30 16:08:55.000000","deleted_at":null,"name":"Western","country_id":"83","fips_code":"09","iso2":"WP","type":"region","latitude":"5.50000000","longitude":"-2.50000000","flag":"1","wikiDataId":"Q870155","user_create_id":null,"user_update_id":null,"country_code":"GH"},
{"id":"50","active":"1","created_at":"2019-10-05 17:48:36.000000","updated_at":"2021-10-30 16:08:55.000000","deleted_at":null,"name":"Eastern","country_id":"83","fips_code":"05","iso2":"EP","type":"region","latitude":"6.50000000","longitude":"-0.50000000","flag":"1","wikiDataId":"Q405670","user_create_id":null,"user_update_id":null,"country_code":"GH"},
{"id":"51","active":"1","created_at":"2019-10-05 17:48:36.000000","updated_at":"2021-10-30 16:08:55.000000","deleted_at":null,"name":"Northern","country_id":"83","fips_code":"06","iso2":"NP","type":"region","latitude":"9.50000000","longitude":"-1.00000000","flag":"1","wikiDataId":"Q502215","user_create_id":null,"user_update_id":null,"country_code":"GH"},
{"id":"52","active":"1","created_at":"2019-10-05 17:48:36.000000","updated_at":"2021-10-30 16:08:55.000000","deleted_at":null,"name":"Central","country_id":"83","fips_code":"04","iso2":"CP","type":"region","latitude":"5.50000000","longitude":"-1.00000000","flag":"1","wikiDataId":"Q846323","user_create_id":null,"user_update_id":null,"country_code":"GH"},
{"id":"53","active":"1","created_at":"2019-10-05 17:48:36.000000","updated_at":"2021-10-30 16:08:55.000000","deleted_at":null,"name":"Ahafo","country_id":"83","fips_code":"03","iso2":"AF","type":"region","latitude":"7.58213720","longitude":"-2.54974630","flag":"1","wikiDataId":"Q48804007","user_create_id":null,"user_update_id":null,"country_code":"GH"},
{"id":"54","active":"1","created_at":"2019-10-05 17:48:36.000000","updated_at":"2021-10-30 16:08:55.000000","deleted_at":null,"name":"Greater Accra","country_id":"83","fips_code":"01","iso2":"AA","type":"region","latitude":"5.81428360","longitude":"0.07467670","flag":"1","wikiDataId":"Q431729","user_create_id":null,"user_update_id":null,"country_code":"GH"},
{"id":"55","active":"1","created_at":"2019-10-05 17:48:36.000000","updated_at":"2021-10-30 16:08:55.000000","deleted_at":null,"name":"Upper East","country_id":"83","fips_code":"10","iso2":"UE","type":"region","latitude":"10.70824990","longitude":"-0.98206680","flag":"1","wikiDataId":"Q712828","user_create_id":null,"user_update_id":null,"country_code":"GH"},
{"id":"56","active":"1","created_at":"2019-10-05 17:48:36.000000","updated_at":"2021-10-30 16:08:55.000000","deleted_at":null,"name":"Volta","country_id":"83","fips_code":"08","iso2":"TV","type":"region","latitude":"6.57813730","longitude":"0.45023680","flag":"1","wikiDataId":"Q712832","user_create_id":null,"user_update_id":null,"country_code":"GH"},
{"id":"57","active":"1","created_at":"2019-10-05 17:48:36.000000","updated_at":"2021-10-30 16:08:55.000000","deleted_at":null,"name":"Upper West","country_id":"83","fips_code":"11","iso2":"UW","type":"region","latitude":"10.25297570","longitude":"-2.14502450","flag":"1","wikiDataId":"Q715805","user_create_id":null,"user_update_id":null,"country_code":"GH"},
{"id":"58","active":"1","created_at":"2019-10-05 23:18:36.000000","updated_at":"2022-08-31 15:52:51.000000","deleted_at":null,"name":"San Marino","country_id":"192","fips_code":"07","iso2":"07","type":null,"latitude":"43.94236000","longitude":"12.45777700","flag":"1","wikiDataId":"Q1848","user_create_id":null,"user_update_id":null,"country_code":"SM"},
{"id":"59","active":"1","created_at":"2019-10-05 23:18:36.000000","updated_at":"2022-08-31 15:52:51.000000","deleted_at":null,"name":"Acquaviva","country_id":"192","fips_code":"01","iso2":"01","type":null,"latitude":"41.86715970","longitude":"14.74694790","flag":"1","wikiDataId":"Q206363","user_create_id":null,"user_update_id":null,"country_code":"SM"},
{"id":"60","active":"1","created_at":"2019-10-05 23:18:36.000000","updated_at":"2022-08-31 15:52:51.000000","deleted_at":null,"name":"Chiesanuova","country_id":"192","fips_code":"02","iso2":"02","type":null,"latitude":"45.42261720","longitude":"7.65038540","flag":"1","wikiDataId":"Q206980","user_create_id":null,"user_update_id":null,"country_code":"SM"},
{"id":"61","active":"1","created_at":"2019-10-05 23:18:36.000000","updated_at":"2022-08-31 15:52:51.000000","deleted_at":null,"name":"Borgo Maggiore","country_id":"192","fips_code":"06","iso2":"06","type":null,"latitude":"43.95748820","longitude":"12.45525460","flag":"1","wikiDataId":"Q201368","user_create_id":null,"user_update_id":null,"country_code":"SM"},
{"id":"62","active":"1","created_at":"2019-10-05 23:18:36.000000","updated_at":"2022-08-31 15:52:51.000000","deleted_at":null,"name":"Faetano","country_id":"192","fips_code":"04","iso2":"04","type":null,"latitude":"43.93489670","longitude":"12.48965540","flag":"1","wikiDataId":"Q206356","user_create_id":null,"user_update_id":null,"country_code":"SM"},
{"id":"63","active":"1","created_at":"2019-10-05 23:18:36.000000","updated_at":"2022-08-31 15:52:51.000000","deleted_at":null,"name":"Montegiardino","country_id":"192","fips_code":"08","iso2":"08","type":null,"latitude":"43.90529990","longitude":"12.48105420","flag":"1","wikiDataId":"Q206962","user_create_id":null,"user_update_id":null,"country_code":"SM"},
{"id":"64","active":"1","created_at":"2019-10-05 23:18:36.000000","updated_at":"2022-08-31 15:52:51.000000","deleted_at":null,"name":"Domagnano","country_id":"192","fips_code":"03","iso2":"03","type":null,"latitude":"43.95019290","longitude":"12.46815370","flag":"1","wikiDataId":"Q202202","user_create_id":null,"user_update_id":null,"country_code":"SM"},
{"id":"65","active":"1","created_at":"2019-10-05 23:18:36.000000","updated_at":"2022-08-31 15:52:51.000000","deleted_at":null,"name":"Serravalle","country_id":"192","fips_code":"09","iso2":"09","type":null,"latitude":"44.72320840","longitude":"8.85740050","flag":"1","wikiDataId":"Q185412","user_create_id":null,"user_update_id":null,"country_code":"SM"},
{"id":"66","active":"1","created_at":"2019-10-05 23:18:36.000000","updated_at":"2022-08-31 15:52:51.000000","deleted_at":null,"name":"Fiorentino","country_id":"192","fips_code":"05","iso2":"05","type":null,"latitude":"43.90783370","longitude":"12.45812090","flag":"1","wikiDataId":"Q206968","user_create_id":null,"user_update_id":null,"country_code":"SM"},
{"id":"67","active":"1","created_at":"2019-10-05 23:18:36.000000","updated_at":"2022-08-31 15:52:51.000000","deleted_at":null,"name":"Tillabéri Region","country_id":"160","fips_code":"09","iso2":"6","type":null,"latitude":"14.64895250","longitude":"2.14502450","flag":"1","wikiDataId":"Q861914","user_create_id":null,"user_update_id":null,"country_code":"NE"},
{"id":"68","active":"1","created_at":"2019-10-05 23:18:36.000000","updated_at":"2022-08-31 15:52:51.000000","deleted_at":null,"name":"Dosso Region","country_id":"160","fips_code":"03","iso2":"3","type":null,"latitude":"13.15139470","longitude":"3.41955270","flag":"1","wikiDataId":"Q850055","user_create_id":null,"user_update_id":null,"country_code":"NE"},
{"id":"69","active":"1","created_at":"2019-10-05 23:18:36.000000","updated_at":"2022-08-31 15:52:51.000000","deleted_at":null,"name":"Zinder Region","country_id":"160","fips_code":"07","iso2":"7","type":null,"latitude":"15.17188810","longitude":"10.26001250","flag":"1","wikiDataId":"Q204367","user_create_id":null,"user_update_id":null,"country_code":"NE"},
{"id":"70","active":"1","created_at":"2019-10-05 23:18:36.000000","updated_at":"2022-08-31 15:52:51.000000","deleted_at":null,"name":"Maradi Region","country_id":"160","fips_code":"04","iso2":"4","type":null,"latitude":"13.80180740","longitude":"7.43813550","flag":"1","wikiDataId":"Q850036","user_create_id":null,"user_update_id":null,"country_code":"NE"},
{"id":"71","active":"1","created_at":"2019-10-05 23:18:36.000000","updated_at":"2022-08-31 15:52:51.000000","deleted_at":null,"name":"Agadez Region","country_id":"160","fips_code":"01","iso2":"1","type":null,"latitude":"20.66707520","longitude":"12.07182810","flag":"1","wikiDataId":"Q389944","user_create_id":null,"user_update_id":null,"country_code":"NE"},
{"id":"72","active":"1","created_at":"2019-10-05 23:18:36.000000","updated_at":"2022-08-31 15:52:51.000000","deleted_at":null,"name":"Diffa Region","country_id":"160","fips_code":"02","iso2":"2","type":null,"latitude":"13.67686470","longitude":"12.71351210","flag":"1","wikiDataId":"Q1053302","user_create_id":null,"user_update_id":null,"country_code":"NE"},
{"id":"73","active":"1","created_at":"2019-10-05 23:18:36.000000","updated_at":"2022-08-31 15:52:51.000000","deleted_at":null,"name":"Tahoua Region","country_id":"160","fips_code":"06","iso2":"5","type":null,"latitude":"16.09025430","longitude":"5.39395510","flag":"1","wikiDataId":"Q871083","user_create_id":null,"user_update_id":null,"country_code":"NE"},
{"id":"74","active":"1","created_at":"2019-10-05 23:18:36.000000","updated_at":"2022-08-31 15:52:51.000000","deleted_at":null,"name":"Mqabba","country_id":"135","fips_code":"06","iso2":"33","type":null,"latitude":"35.84441430","longitude":"14.46941860","flag":"1","wikiDataId":"Q1017953","user_create_id":null,"user_update_id":null,"country_code":"MT"},
{"id":"75","active":"1","created_at":"2019-10-05 23:18:36.000000","updated_at":"2022-08-31 15:52:51.000000","deleted_at":null,"name":"San Ġwann","country_id":"135","fips_code":"54","iso2":"49","type":null,"latitude":"35.90773650","longitude":"14.47524160","flag":"1","wikiDataId":"Q39507","user_create_id":null,"user_update_id":null,"country_code":"MT"},
{"id":"76","active":"1","created_at":"2019-10-05 23:18:36.000000","updated_at":"2022-08-31 15:52:51.000000","deleted_at":null,"name":"Żurrieq","country_id":"135","fips_code":"54","iso2":"68","type":null,"latitude":"35.82163060","longitude":"14.48106480","flag":"1","wikiDataId":"Q44417","user_create_id":null,"user_update_id":null,"country_code":"MT"},
{"id":"77","active":"1","created_at":"2019-10-05 23:18:36.000000","updated_at":"2022-08-31 15:52:51.000000","deleted_at":null,"name":"Luqa","country_id":"135","fips_code":"30","iso2":"25","type":null,"latitude":"35.85828650","longitude":"14.48688830","flag":"1","wikiDataId":"Q475585","user_create_id":null,"user_update_id":null,"country_code":"MT"},
{"id":"78","active":"1","created_at":"2019-10-05 23:18:36.000000","updated_at":"2022-08-31 15:52:51.000000","deleted_at":null,"name":"Marsaxlokk","country_id":"135","fips_code":"33","iso2":"28","type":null,"latitude":"35.84116990","longitude":"14.53930970","flag":"1","wikiDataId":"Q781921","user_create_id":null,"user_update_id":null,"country_code":"MT"},
{"id":"79","active":"1","created_at":"2019-10-05 23:18:36.000000","updated_at":"2022-08-31 15:52:51.000000","deleted_at":null,"name":"Qala","country_id":"135","fips_code":"33","iso2":"42","type":null,"latitude":"36.03886280","longitude":"14.31810100","flag":"1","wikiDataId":"Q1088033","user_create_id":null,"user_update_id":null,"country_code":"MT"},
{"id":"80","active":"1","created_at":"2019-10-05 23:18:36.000000","updated_at":"2022-08-31 15:52:51.000000","deleted_at":null,"name":"Żebbuġ Malta","country_id":"135","fips_code":"33","iso2":"66","type":null,"latitude":"35.87646480","longitude":"14.43908400","flag":"1","wikiDataId":"Q44573","user_create_id":null,"user_update_id":null,"country_code":"MT"},
{"id":"81","active":"1","created_at":"2019-10-05 23:18:36.000000","updated_at":"2022-08-31 15:52:51.000000","deleted_at":null,"name":"Xgħajra","country_id":"135","fips_code":"33","iso2":"63","type":null,"latitude":"35.88682820","longitude":"14.54723910","flag":"1","wikiDataId":"Q520962","user_create_id":null,"user_update_id":null,"country_code":"MT"},
{"id":"82","active":"1","created_at":"2019-10-05 23:18:36.000000","updated_at":"2022-08-31 15:52:51.000000","deleted_at":null,"name":"Kirkop","country_id":"135","fips_code":"28","iso2":"23","type":null,"latitude":"35.84378620","longitude":"14.48543240","flag":"1","wikiDataId":"Q597464","user_create_id":null,"user_update_id":null,"country_code":"MT"},
{"id":"83","active":"1","created_at":"2019-10-05 23:18:36.000000","updated_at":"2022-08-31 15:52:51.000000","deleted_at":null,"name":"Rabat","country_id":"135","fips_code":"28","iso2":"46","type":null,"latitude":"33.97159040","longitude":"-6.84981290","flag":"1","wikiDataId":"Q44381","user_create_id":null,"user_update_id":null,"country_code":"MT"},
{"id":"84","active":"1","created_at":"2019-10-05 23:18:36.000000","updated_at":"2022-08-31 15:52:51.000000","deleted_at":null,"name":"Floriana","country_id":"135","fips_code":"28","iso2":"09","type":null,"latitude":"45.49521850","longitude":"-73.71395760","flag":"1","wikiDataId":"Q832807","user_create_id":null,"user_update_id":null,"country_code":"MT"},
{"id":"85","active":"1","created_at":"2019-10-05 23:18:36.000000","updated_at":"2022-08-31 15:52:51.000000","deleted_at":null,"name":"Żebbuġ Gozo","country_id":"135","fips_code":"28","iso2":"65","type":null,"latitude":"36.07164030","longitude":"14.24540800","flag":"1","wikiDataId":"Q179243","user_create_id":null,"user_update_id":null,"country_code":"MT"},
{"id":"86","active":"1","created_at":"2019-10-05 23:18:36.000000","updated_at":"2022-08-31 15:52:51.000000","deleted_at":null,"name":"Swieqi","country_id":"135","fips_code":"28","iso2":"57","type":null,"latitude":"35.91911820","longitude":"14.46941860","flag":"1","wikiDataId":"Q220667","user_create_id":null,"user_update_id":null,"country_code":"MT"},
{"id":"87","active":"1","created_at":"2019-10-05 23:18:36.000000","updated_at":"2022-08-31 15:52:51.000000","deleted_at":null,"name":"Saint Lawrence","country_id":"135","fips_code":"50","iso2":"50","type":null,"latitude":"38.95780560","longitude":"-95.25656890","flag":"1","wikiDataId":"Q537308","user_create_id":null,"user_update_id":null,"country_code":"MT"},
{"id":"88","active":"1","created_at":"2019-10-05 23:18:36.000000","updated_at":"2022-08-31 15:52:51.000000","deleted_at":null,"name":"Birżebbuġa","country_id":"135","fips_code":"05","iso2":"05","type":null,"latitude":"35.81359890","longitude":"14.52474630","flag":"1","wikiDataId":"Q258028","user_create_id":null,"user_update_id":null,"country_code":"MT"},
{"id":"89","active":"1","created_at":"2019-10-05 23:18:36.000000","updated_at":"2022-08-31 15:52:51.000000","deleted_at":null,"name":"Mdina","country_id":"135","fips_code":"05","iso2":"29","type":null,"latitude":"35.88809300","longitude":"14.40683570","flag":"1","wikiDataId":"Q207277","user_create_id":null,"user_update_id":null,"country_code":"MT"},
{"id":"90","active":"1","created_at":"2019-10-05 23:18:36.000000","updated_at":"2022-08-31 15:52:51.000000","deleted_at":null,"name":"Santa Venera","country_id":"135","fips_code":"05","iso2":"54","type":null,"latitude":"35.89022010","longitude":"14.47669740","flag":"1","wikiDataId":"Q585420","user_create_id":null,"user_update_id":null,"country_code":"MT"},
{"id":"91","active":"1","created_at":"2019-10-05 23:18:36.000000","updated_at":"2022-08-31 15:52:51.000000","deleted_at":null,"name":"Kerċem","country_id":"135","fips_code":"05","iso2":"22","type":null,"latitude":"36.04479390","longitude":"14.22506050","flag":"1","wikiDataId":"Q674679","user_create_id":null,"user_update_id":null,"country_code":"MT"},
{"id":"92","active":"1","created_at":"2019-10-05 23:18:36.000000","updated_at":"2022-08-31 15:52:51.000000","deleted_at":null,"name":"Għarb","country_id":"135","fips_code":"05","iso2":"14","type":null,"latitude":"36.06890900","longitude":"14.20180980","flag":"1","wikiDataId":"Q1026487","user_create_id":null,"user_update_id":null,"country_code":"MT"},
{"id":"93","active":"1","created_at":"2019-10-05 23:18:36.000000","updated_at":"2022-08-31 15:52:51.000000","deleted_at":null,"name":"Iklin","country_id":"135","fips_code":"05","iso2":"19","type":null,"latitude":"35.90987740","longitude":"14.45777320","flag":"1","wikiDataId":"Q304589","user_create_id":null,"user_update_id":null,"country_code":"MT"},
{"id":"94","active":"1","created_at":"2019-10-05 23:18:36.000000","updated_at":"2022-08-31 15:52:51.000000","deleted_at":null,"name":"Santa Luċija","country_id":"135","fips_code":"05","iso2":"53","type":null,"latitude":"35.85614200","longitude":"14.50436000","flag":"1","wikiDataId":"Q1087776","user_create_id":null,"user_update_id":null,"country_code":"MT"},
{"id":"95","active":"1","created_at":"2019-10-05 23:18:36.000000","updated_at":"2022-08-31 15:52:51.000000","deleted_at":null,"name":"Valletta","country_id":"135","fips_code":"05","iso2":"60","type":null,"latitude":"35.89890850","longitude":"14.51455280","flag":"1","wikiDataId":"Q23800","user_create_id":null,"user_update_id":null,"country_code":"MT"},
{"id":"96","active":"1","created_at":"2019-10-05 23:18:36.000000","updated_at":"2022-08-31 15:52:51.000000","deleted_at":null,"name":"Msida","country_id":"135","fips_code":"05","iso2":"34","type":null,"latitude":"35.89563880","longitude":"14.48688830","flag":"1","wikiDataId":"Q585187","user_create_id":null,"user_update_id":null,"country_code":"MT"},
{"id":"97","active":"1","created_at":"2019-10-05 23:18:36.000000","updated_at":"2022-08-31 15:52:51.000000","deleted_at":null,"name":"Birkirkara","country_id":"135","fips_code":"04","iso2":"04","type":null,"latitude":"35.89547060","longitude":"14.46650720","flag":"1","wikiDataId":"Q39583","user_create_id":null,"user_update_id":null,"country_code":"MT"},
{"id":"98","active":"1","created_at":"2019-10-05 23:18:36.000000","updated_at":"2022-08-31 15:52:51.000000","deleted_at":null,"name":"Siġġiewi","country_id":"135","fips_code":"04","iso2":"55","type":null,"latitude":"35.84637420","longitude":"14.43157460","flag":"1","wikiDataId":"Q919908","user_create_id":null,"user_update_id":null,"country_code":"MT"},
{"id":"99","active":"1","created_at":"2019-10-05 23:18:36.000000","updated_at":"2022-08-31 15:52:51.000000","deleted_at":null,"name":"Kalkara","country_id":"135","fips_code":"04","iso2":"21","type":null,"latitude":"35.89142420","longitude":"14.53202780","flag":"1","wikiDataId":"Q533257","user_create_id":null,"user_update_id":null,"country_code":"MT"},
{"id":"100","active":"1","created_at":"2019-10-05 23:18:36.000000","updated_at":"2022-08-31 15:52:51.000000","deleted_at":null,"name":"St. Julian's","country_id":"135","fips_code":"35","iso2":"48","type":null,"latitude":"42.21225130","longitude":"-85.89171270","flag":"1","wikiDataId":"Q669979","user_create_id":null,"user_update_id":null,"country_code":"MT"},
{"id":"101","active":"1","created_at":"2019-10-05 23:18:36.000000","updated_at":"2022-08-31 15:52:51.000000","deleted_at":null,"name":"Victoria","country_id":"135","fips_code":"46","iso2":"45","type":null,"latitude":"28.80526740","longitude":"-97.00359820","flag":"1","wikiDataId":"Q752348","user_create_id":null,"user_update_id":null,"country_code":"MT"},
{"id":"102","active":"1","created_at":"2019-10-05 23:18:36.000000","updated_at":"2022-08-31 15:52:51.000000","deleted_at":null,"name":"Mellieħa","country_id":"135","fips_code":"46","iso2":"30","type":null,"latitude":"35.95235290","longitude":"14.35009750","flag":"1","wikiDataId":"Q755979","user_create_id":null,"user_update_id":null,"country_code":"MT"},
{"id":"103","active":"1","created_at":"2019-10-05 23:18:36.000000","updated_at":"2022-08-31 15:52:51.000000","deleted_at":null,"name":"Tarxien","country_id":"135","fips_code":"58","iso2":"59","type":null,"latitude":"35.86725520","longitude":"14.51164050","flag":"1","wikiDataId":"Q744001","user_create_id":null,"user_update_id":null,"country_code":"MT"},
{"id":"104","active":"1","created_at":"2019-10-05 23:18:36.000000","updated_at":"2022-08-31 15:52:51.000000","deleted_at":null,"name":"Sliema","country_id":"135","fips_code":"58","iso2":"56","type":null,"latitude":"35.91100810","longitude":"14.50290400","flag":"1","wikiDataId":"Q39526","user_create_id":null,"user_update_id":null,"country_code":"MT"},
{"id":"105","active":"1","created_at":"2019-10-05 23:18:36.000000","updated_at":"2022-08-31 15:52:51.000000","deleted_at":null,"name":"Ħamrun","country_id":"135","fips_code":"58","iso2":"18","type":null,"latitude":"35.88612370","longitude":"14.48834420","flag":"1","wikiDataId":"Q343001","user_create_id":null,"user_update_id":null,"country_code":"MT"},
{"id":"106","active":"1","created_at":"2019-10-05 23:18:36.000000","updated_at":"2022-08-31 15:52:51.000000","deleted_at":null,"name":"Għasri","country_id":"135","fips_code":"58","iso2":"16","type":null,"latitude":"36.06680750","longitude":"14.21924750","flag":"1","wikiDataId":"Q1017339","user_create_id":null,"user_update_id":null,"country_code":"MT"},
{"id":"107","active":"1","created_at":"2019-10-05 23:18:36.000000","updated_at":"2022-08-31 15:52:51.000000","deleted_at":null,"name":"Birgu","country_id":"135","fips_code":"58","iso2":"03","type":null,"latitude":"35.88792140","longitude":"14.52256200","flag":"1","wikiDataId":"Q752346","user_create_id":null,"user_update_id":null,"country_code":"MT"},
{"id":"108","active":"1","created_at":"2019-10-05 23:18:36.000000","updated_at":"2022-08-31 15:52:51.000000","deleted_at":null,"name":"Balzan","country_id":"135","fips_code":"02","iso2":"02","type":null,"latitude":"35.89574140","longitude":"14.45340650","flag":"1","wikiDataId":"Q789794","user_create_id":null,"user_update_id":null,"country_code":"MT"},
{"id":"109","active":"1","created_at":"2019-10-05 23:18:36.000000","updated_at":"2022-08-31 15:52:51.000000","deleted_at":null,"name":"Mġarr","country_id":"135","fips_code":"02","iso2":"31","type":null,"latitude":"35.91893270","longitude":"14.36173430","flag":"1","wikiDataId":"Q691220","user_create_id":null,"user_update_id":null,"country_code":"MT"},
{"id":"110","active":"1","created_at":"2019-10-05 23:18:36.000000","updated_at":"2022-08-31 15:52:51.000000","deleted_at":null,"name":"Attard","country_id":"135","fips_code":"01","iso2":"01","type":null,"latitude":"35.89049670","longitude":"14.41993220","flag":"1","wikiDataId":"Q44557","user_create_id":null,"user_update_id":null,"country_code":"MT"},
{"id":"111","active":"1","created_at":"2019-10-05 23:18:36.000000","updated_at":"2022-08-31 15:52:51.000000","deleted_at":null,"name":"Qrendi","country_id":"135","fips_code":"01","iso2":"44","type":null,"latitude":"35.83284880","longitude":"14.45486210","flag":"1","wikiDataId":"Q282203","user_create_id":null,"user_update_id":null,"country_code":"MT"},
{"id":"112","active":"1","created_at":"2019-10-05 23:18:36.000000","updated_at":"2022-08-31 15:52:51.000000","deleted_at":null,"name":"Naxxar","country_id":"135","fips_code":"01","iso2":"38","type":null,"latitude":"35.93175180","longitude":"14.43157460","flag":"1","wikiDataId":"Q44397","user_create_id":null,"user_update_id":null,"country_code":"MT"},
{"id":"113","active":"1","created_at":"2019-10-05 23:18:36.000000","updated_at":"2022-08-31 15:52:51.000000","deleted_at":null,"name":"Gżira","country_id":"135","fips_code":"01","iso2":"12","type":null,"latitude":"35.90589700","longitude":"14.49533380","flag":"1","wikiDataId":"Q632097","user_create_id":null,"user_update_id":null,"country_code":"MT"},
{"id":"114","active":"1","created_at":"2019-10-05 23:18:36.000000","updated_at":"2022-08-31 15:52:51.000000","deleted_at":null,"name":"Xagħra","country_id":"135","fips_code":"01","iso2":"61","type":null,"latitude":"36.05084500","longitude":"14.26748200","flag":"1","wikiDataId":"Q605343","user_create_id":null,"user_update_id":null,"country_code":"MT"},
{"id":"115","active":"1","created_at":"2019-10-05 23:18:36.000000","updated_at":"2022-08-31 15:52:51.000000","deleted_at":null,"name":"Paola","country_id":"135","fips_code":"39","iso2":"39","type":null,"latitude":"38.57223530","longitude":"-94.87912940","flag":"1","wikiDataId":"Q846589","user_create_id":null,"user_update_id":null,"country_code":"MT"},
{"id":"116","active":"1","created_at":"2019-10-05 23:18:36.000000","updated_at":"2022-08-31 15:52:51.000000","deleted_at":null,"name":"Sannat","country_id":"135","fips_code":"54","iso2":"52","type":null,"latitude":"36.01926430","longitude":"14.25994370","flag":"1","wikiDataId":"Q602037","user_create_id":null,"user_update_id":null,"country_code":"MT"},
{"id":"117","active":"1","created_at":"2019-10-05 23:18:36.000000","updated_at":"2022-08-31 15:52:51.000000","deleted_at":null,"name":"Dingli","country_id":"135","fips_code":"07","iso2":"07","type":null,"latitude":"35.86273090","longitude":"14.38501070","flag":"1","wikiDataId":"Q905641","user_create_id":null,"user_update_id":null,"country_code":"MT"},
{"id":"118","active":"1","created_at":"2019-10-05 23:18:36.000000","updated_at":"2022-08-31 15:52:51.000000","deleted_at":null,"name":"Gudja","country_id":"135","fips_code":"07","iso2":"11","type":null,"latitude":"35.84698030","longitude":"14.50290400","flag":"1","wikiDataId":"Q1018153","user_create_id":null,"user_update_id":null,"country_code":"MT"},
{"id":"119","active":"1","created_at":"2019-10-05 23:18:36.000000","updated_at":"2022-08-31 15:52:51.000000","deleted_at":null,"name":"Qormi","country_id":"135","fips_code":"43","iso2":"43","type":null,"latitude":"35.87643880","longitude":"14.46941860","flag":"1","wikiDataId":"Q39578","user_create_id":null,"user_update_id":null,"country_code":"MT"},
{"id":"120","active":"1","created_at":"2019-10-05 23:18:36.000000","updated_at":"2022-08-31 15:52:51.000000","deleted_at":null,"name":"Għargħur","country_id":"135","fips_code":"43","iso2":"15","type":null,"latitude":"35.92205690","longitude":"14.45631760","flag":"1","wikiDataId":"Q1018111","user_create_id":null,"user_update_id":null,"country_code":"MT"},
{"id":"121","active":"1","created_at":"2019-10-05 23:18:36.000000","updated_at":"2022-08-31 15:52:51.000000","deleted_at":null,"name":"Xewkija","country_id":"135","fips_code":"43","iso2":"62","type":null,"latitude":"36.02992360","longitude":"14.25994370","flag":"1","wikiDataId":"Q919921","user_create_id":null,"user_update_id":null,"country_code":"MT"},
{"id":"122","active":"1","created_at":"2019-10-05 23:18:36.000000","updated_at":"2022-08-31 15:52:51.000000","deleted_at":null,"name":"Ta' Xbiex","country_id":"135","fips_code":"59","iso2":"58","type":null,"latitude":"35.89914480","longitude":"14.49635190","flag":"1","wikiDataId":"Q1017348","user_create_id":null,"user_update_id":null,"country_code":"MT"},
{"id":"123","active":"1","created_at":"2019-10-05 23:18:36.000000","updated_at":"2022-08-31 15:52:51.000000","deleted_at":null,"name":"Żabbar","country_id":"135","fips_code":"59","iso2":"64","type":null,"latitude":"35.87247150","longitude":"14.54513540","flag":"1","wikiDataId":"Q39518","user_create_id":null,"user_update_id":null,"country_code":"MT"},
{"id":"124","active":"1","created_at":"2019-10-05 23:18:36.000000","updated_at":"2022-08-31 15:52:51.000000","deleted_at":null,"name":"Għaxaq","country_id":"135","fips_code":"59","iso2":"17","type":null,"latitude":"35.84403590","longitude":"14.51600900","flag":"1","wikiDataId":"Q426385","user_create_id":null,"user_update_id":null,"country_code":"MT"},
{"id":"125","active":"1","created_at":"2019-10-05 23:18:36.000000","updated_at":"2022-08-31 15:52:51.000000","deleted_at":null,"name":"Pembroke","country_id":"135","fips_code":"40","iso2":"40","type":null,"latitude":"34.68016260","longitude":"-79.19503730","flag":"1","wikiDataId":"Q775756","user_create_id":null,"user_update_id":null,"country_code":"MT"},
{"id":"126","active":"1","created_at":"2019-10-05 23:18:36.000000","updated_at":"2022-08-31 15:52:51.000000","deleted_at":null,"name":"Lija","country_id":"135","fips_code":"29","iso2":"24","type":null,"latitude":"49.18007600","longitude":"-123.10331700","flag":"1","wikiDataId":"Q782049","user_create_id":null,"user_update_id":null,"country_code":"MT"},
{"id":"127","active":"1","created_at":"2019-10-05 23:18:36.000000","updated_at":"2022-08-31 15:52:51.000000","deleted_at":null,"name":"Pietà","country_id":"135","fips_code":"29","iso2":"41","type":null,"latitude":"42.21862000","longitude":"-83.73464700","flag":"1","wikiDataId":"Q744070","user_create_id":null,"user_update_id":null,"country_code":"MT"},
{"id":"128","active":"1","created_at":"2019-10-05 23:18:36.000000","updated_at":"2022-08-31 15:52:51.000000","deleted_at":null,"name":"Marsa","country_id":"135","fips_code":"29","iso2":"26","type":null,"latitude":"34.03195870","longitude":"-118.44555350","flag":"1","wikiDataId":"Q267431","user_create_id":null,"user_update_id":null,"country_code":"MT"},
{"id":"129","active":"1","created_at":"2019-10-05 23:18:36.000000","updated_at":"2022-08-31 15:52:51.000000","deleted_at":null,"name":"Fgura","country_id":"135","fips_code":"29","iso2":"08","type":null,"latitude":"35.87382690","longitude":"14.52329010","flag":"1","wikiDataId":"Q44388","user_create_id":null,"user_update_id":null,"country_code":"MT"},
{"id":"130","active":"1","created_at":"2019-10-05 23:18:36.000000","updated_at":"2022-08-31 15:52:51.000000","deleted_at":null,"name":"Għajnsielem","country_id":"135","fips_code":"11","iso2":"13","type":null,"latitude":"36.02479660","longitude":"14.28029610","flag":"1","wikiDataId":"Q761675","user_create_id":null,"user_update_id":null,"country_code":"MT"},
{"id":"131","active":"1","created_at":"2019-10-05 23:18:36.000000","updated_at":"2022-08-31 15:52:51.000000","deleted_at":null,"name":"Mtarfa","country_id":"135","fips_code":"11","iso2":"35","type":null,"latitude":"35.88951250","longitude":"14.39519530","flag":"1","wikiDataId":"Q656837","user_create_id":null,"user_update_id":null,"country_code":"MT"},
{"id":"132","active":"1","created_at":"2019-10-05 23:18:36.000000","updated_at":"2022-08-31 15:52:51.000000","deleted_at":null,"name":"Munxar","country_id":"135","fips_code":"11","iso2":"36","type":null,"latitude":"36.02880580","longitude":"14.22506050","flag":"1","wikiDataId":"Q587462","user_create_id":null,"user_update_id":null,"country_code":"MT"},
{"id":"133","active":"1","created_at":"2019-10-05 23:18:36.000000","updated_at":"2022-08-31 15:52:51.000000","deleted_at":null,"name":"Nadur","country_id":"135","fips_code":"11","iso2":"37","type":null,"latitude":"36.04470190","longitude":"14.29192730","flag":"1","wikiDataId":"Q929969","user_create_id":null,"user_update_id":null,"country_code":"MT"},
{"id":"134","active":"1","created_at":"2019-10-05 23:18:36.000000","updated_at":"2022-08-31 15:52:51.000000","deleted_at":null,"name":"Fontana","country_id":"135","fips_code":"11","iso2":"10","type":null,"latitude":"34.09223350","longitude":"-117.43504800","flag":"1","wikiDataId":"Q1002742","user_create_id":null,"user_update_id":null,"country_code":"MT"},
{"id":"135","active":"1","created_at":"2019-10-05 23:18:36.000000","updated_at":"2022-08-31 15:52:51.000000","deleted_at":null,"name":"Żejtun","country_id":"135","fips_code":"11","iso2":"67","type":null,"latitude":"35.85487140","longitude":"14.53639690","flag":"1","wikiDataId":"Q44392","user_create_id":null,"user_update_id":null,"country_code":"MT"},
{"id":"136","active":"1","created_at":"2019-10-05 23:18:36.000000","updated_at":"2022-08-31 15:52:51.000000","deleted_at":null,"name":"Senglea","country_id":"135","fips_code":"11","iso2":"20","type":null,"latitude":"35.88730410","longitude":"14.51673710","flag":"1","wikiDataId":"Q846593","user_create_id":null,"user_update_id":null,"country_code":"MT"},
{"id":"137","active":"1","created_at":"2019-10-05 23:18:36.000000","updated_at":"2022-08-31 15:52:51.000000","deleted_at":null,"name":"Marsaskala","country_id":"135","fips_code":"32","iso2":"27","type":null,"latitude":"35.86036400","longitude":"14.55678760","flag":"1","wikiDataId":"Q534571","user_create_id":null,"user_update_id":null,"country_code":"MT"},
{"id":"138","active":"1","created_at":"2019-10-05 23:18:36.000000","updated_at":"2022-08-31 15:52:51.000000","deleted_at":null,"name":"Cospicua","country_id":"135","fips_code":"32","iso2":"06","type":null,"latitude":"35.88067530","longitude":"14.52183380","flag":"1","wikiDataId":"Q757225","user_create_id":null,"user_update_id":null,"country_code":"MT"},
{"id":"139","active":"1","created_at":"2019-10-05 23:18:36.000000","updated_at":"2022-08-31 15:52:51.000000","deleted_at":null,"name":"St. Paul's Bay","country_id":"135","fips_code":"35","iso2":"51","type":null,"latitude":"35.93601700","longitude":"14.39665030","flag":"1","wikiDataId":"Q39521","user_create_id":null,"user_update_id":null,"country_code":"MT"},
{"id":"140","active":"1","created_at":"2019-10-05 23:18:36.000000","updated_at":"2022-08-31 15:52:51.000000","deleted_at":null,"name":"Mosta","country_id":"135","fips_code":"35","iso2":"32","type":null,"latitude":"35.91415040","longitude":"14.42284270","flag":"1","wikiDataId":"Q39520","user_create_id":null,"user_update_id":null,"country_code":"MT"},
{"id":"141","active":"1","created_at":"2019-10-05 23:18:36.000000","updated_at":"2022-08-31 15:52:51.000000","deleted_at":null,"name":"Mangystau Region","country_id":"112","fips_code":"09","iso2":"MA","type":null,"latitude":"44.59080200","longitude":"53.84995080","flag":"1","wikiDataId":"Q238931","user_create_id":null,"user_update_id":null,"country_code":"KZ"},
{"id":"142","active":"1","created_at":"2019-10-05 23:18:36.000000","updated_at":"2022-08-31 15:52:51.000000","deleted_at":null,"name":"Kyzylorda Region","country_id":"112","fips_code":"14","iso2":"KZ","type":null,"latitude":"44.69226130","longitude":"62.65718850","flag":"1","wikiDataId":"Q485322","user_create_id":null,"user_update_id":null,"country_code":"KZ"},
{"id":"143","active":"1","created_at":"2019-10-05 23:18:36.000000","updated_at":"2022-08-31 15:52:51.000000","deleted_at":null,"name":"Almaty Region","country_id":"112","fips_code":"01","iso2":"AL","type":null,"latitude":"45.01192270","longitude":"78.42293920","flag":"1","wikiDataId":"Q186466","user_create_id":null,"user_update_id":null,"country_code":"KZ"},
{"id":"144","active":"1","created_at":"2019-10-05 23:18:36.000000","updated_at":"2022-08-31 15:52:51.000000","deleted_at":null,"name":"North Kazakhstan Region","country_id":"112","fips_code":"16","iso2":"SE","type":null,"latitude":"54.16220660","longitude":"69.93870710","flag":"1","wikiDataId":"Q485088","user_create_id":null,"user_update_id":null,"country_code":"KZ"},
{"id":"145","active":"1","created_at":"2019-10-05 23:18:36.000000","updated_at":"2022-08-31 15:52:51.000000","deleted_at":null,"name":"Akmola Region","country_id":"112","fips_code":"03","iso2":"AK","type":null,"latitude":"51.91653200","longitude":"69.41104940","flag":"1","wikiDataId":"Q485056","user_create_id":null,"user_update_id":null,"country_code":"KZ"},
{"id":"146","active":"1","created_at":"2019-10-05 23:18:36.000000","updated_at":"2022-08-31 15:52:51.000000","deleted_at":null,"name":"Pavlodar Region","country_id":"112","fips_code":"11","iso2":"PA","type":null,"latitude":"52.28784440","longitude":"76.97334530","flag":"1","wikiDataId":"Q486144","user_create_id":null,"user_update_id":null,"country_code":"KZ"},
{"id":"147","active":"1","created_at":"2019-10-05 23:18:36.000000","updated_at":"2022-08-31 15:52:51.000000","deleted_at":null,"name":"Jambyl Region","country_id":"112","fips_code":"17","iso2":"ZH","type":null,"latitude":"44.22203080","longitude":"72.36579670","flag":"1","wikiDataId":"Q486657","user_create_id":null,"user_update_id":null,"country_code":"KZ"},
{"id":"148","active":"1","created_at":"2019-10-05 23:18:36.000000","updated_at":"2022-08-31 15:52:51.000000","deleted_at":null,"name":"West Kazakhstan Province","country_id":"112","fips_code":"07","iso2":"ZA","type":null,"latitude":"49.56797270","longitude":"50.80666160","flag":"1","wikiDataId":"Q486007","user_create_id":null,"user_update_id":null,"country_code":"KZ"},
{"id":"149","active":"1","created_at":"2019-10-05 23:18:36.000000","updated_at":"2022-08-31 15:52:51.000000","deleted_at":null,"name":"Turkestan Region","country_id":"112","fips_code":"10","iso2":"YU","type":null,"latitude":"43.36669580","longitude":"68.40944050","flag":"1","wikiDataId":"Q815330","user_create_id":null,"user_update_id":null,"country_code":"KZ"},
{"id":"150","active":"1","created_at":"2019-10-05 23:18:36.000000","updated_at":"2022-08-31 15:52:51.000000","deleted_at":null,"name":"Karaganda Region","country_id":"112","fips_code":"12","iso2":"KA","type":null,"latitude":"47.90221820","longitude":"71.77068070","flag":"1","wikiDataId":"Q485429","user_create_id":null,"user_update_id":null,"country_code":"KZ"},
{"id":"151","active":"1","created_at":"2019-10-05 23:18:36.000000","updated_at":"2022-08-31 15:52:51.000000","deleted_at":null,"name":"Aktobe Region","country_id":"112","fips_code":"04","iso2":"AK","type":null,"latitude":"48.77970780","longitude":"57.99743780","flag":"1","wikiDataId":"Q485437","user_create_id":null,"user_update_id":null,"country_code":"KZ"},
{"id":"152","active":"1","created_at":"2019-10-05 23:18:36.000000","updated_at":"2022-08-31 15:52:51.000000","deleted_at":null,"name":"Almaty","country_id":"112","fips_code":"02","iso2":"AL","type":null,"latitude":"43.22201460","longitude":"76.85124850","flag":"1","wikiDataId":"Q35493","user_create_id":null,"user_update_id":null,"country_code":"KZ"},
{"id":"153","active":"1","created_at":"2019-10-05 23:18:36.000000","updated_at":"2022-08-31 15:52:51.000000","deleted_at":null,"name":"Atyrau Region","country_id":"112","fips_code":"06","iso2":"AT","type":null,"latitude":"47.10761880","longitude":"51.91413300","flag":"1","wikiDataId":"Q427658","user_create_id":null,"user_update_id":null,"country_code":"KZ"},
{"id":"154","active":"1","created_at":"2019-10-05 23:18:36.000000","updated_at":"2022-08-31 15:52:51.000000","deleted_at":null,"name":"East Kazakhstan Region","country_id":"112","fips_code":"15","iso2":"VO","type":null,"latitude":"48.70626870","longitude":"80.79225340","flag":"1","wikiDataId":"Q36156","user_create_id":null,"user_update_id":null,"country_code":"KZ"},
{"id":"155","active":"1","created_at":"2019-10-05 23:18:36.000000","updated_at":"2022-08-31 15:52:51.000000","deleted_at":null,"name":"Baikonur","country_id":"112","fips_code":"08","iso2":"BA","type":null,"latitude":"45.96458510","longitude":"63.30524280","flag":"1","wikiDataId":"Q165413","user_create_id":null,"user_update_id":null,"country_code":"KZ"},
{"id":"156","active":"1","created_at":"2019-10-05 23:18:36.000000","updated_at":"2022-08-31 15:52:51.000000","deleted_at":null,"name":"Nur-Sultan","country_id":"112","fips_code":"05","iso2":"AS","type":null,"latitude":"51.16052270","longitude":"71.47035580","flag":"1","wikiDataId":"Q1520","user_create_id":null,"user_update_id":null,"country_code":"KZ"},
{"id":"157","active":"1","created_at":"2019-10-05 23:18:36.000000","updated_at":"2022-08-31 15:52:51.000000","deleted_at":null,"name":"Kostanay Region","country_id":"112","fips_code":"13","iso2":"KU","type":null,"latitude":"51.50770960","longitude":"64.04790730","flag":"1","wikiDataId":"Q485605","user_create_id":null,"user_update_id":null,"country_code":"KZ"},
{"id":"158","active":"1","created_at":"2019-10-05 23:18:36.000000","updated_at":"2021-12-11 19:42:47.000000","deleted_at":null,"name":"Kakamega","country_id":"113","fips_code":"20","iso2":"11","type":"county","latitude":"0.30789400","longitude":"34.77407930","flag":"1","wikiDataId":"Q1721867","user_create_id":null,"user_update_id":null,"country_code":"KE"},
{"id":"159","active":"1","created_at":"2019-10-05 23:18:36.000000","updated_at":"2021-12-11 19:42:47.000000","deleted_at":null,"name":"Kisii","country_id":"113","fips_code":"25","iso2":"16","type":"county","latitude":"-0.67733400","longitude":"34.77960300","flag":"1","wikiDataId":"Q1743730","user_create_id":null,"user_update_id":null,"country_code":"KE"},
{"id":"160","active":"1","created_at":"2019-10-05 23:18:36.000000","updated_at":"2021-12-11 19:42:47.000000","deleted_at":null,"name":"Busia","country_id":"113","fips_code":"13","iso2":"04","type":"county","latitude":"0.43465060","longitude":"34.24215970","flag":"1","wikiDataId":"Q1017519","user_create_id":null,"user_update_id":null,"country_code":"KE"},
{"id":"161","active":"1","created_at":"2019-10-05 23:18:36.000000","updated_at":"2021-12-11 19:42:47.000000","deleted_at":null,"name":"Embu","country_id":"113","fips_code":"15","iso2":"06","type":"county","latitude":"-0.65604770","longitude":"37.72376780","flag":"1","wikiDataId":"Q1335242","user_create_id":null,"user_update_id":null,"country_code":"KE"},
{"id":"162","active":"1","created_at":"2019-10-05 23:18:36.000000","updated_at":"2021-12-11 19:42:47.000000","deleted_at":null,"name":"Laikipia","country_id":"113","fips_code":"29","iso2":"20","type":"county","latitude":"0.36060630","longitude":"36.78195050","flag":"1","wikiDataId":"Q1800699","user_create_id":null,"user_update_id":null,"country_code":"KE"},
{"id":"163","active":"1","created_at":"2019-10-05 23:18:36.000000","updated_at":"2021-12-11 19:42:47.000000","deleted_at":null,"name":"Nandi","country_id":"113","fips_code":"40","iso2":"32","type":"county","latitude":"0.18358670","longitude":"35.12687810","flag":"1","wikiDataId":"Q1964569","user_create_id":null,"user_update_id":null,"country_code":"KE"},
{"id":"164","active":"1","created_at":"2019-10-05 23:18:36.000000","updated_at":"2021-12-11 19:42:47.000000","deleted_at":null,"name":"Lamu","country_id":"113","fips_code":"30","iso2":"21","type":"county","latitude":"-2.23550580","longitude":"40.47200040","flag":"1","wikiDataId":"Q1951652","user_create_id":null,"user_update_id":null,"country_code":"KE"},
{"id":"165","active":"1","created_at":"2019-10-05 23:18:36.000000","updated_at":"2021-12-11 19:42:47.000000","deleted_at":null,"name":"Kirinyaga","country_id":"113","fips_code":"24","iso2":"15","type":"county","latitude":"-0.65905650","longitude":"37.38272340","flag":"1","wikiDataId":"Q2230311","user_create_id":null,"user_update_id":null,"country_code":"KE"},
{"id":"166","active":"1","created_at":"2019-10-05 23:18:36.000000","updated_at":"2021-12-11 19:42:47.000000","deleted_at":null,"name":"Bungoma","country_id":"113","fips_code":"12","iso2":"03","type":"county","latitude":"0.56952520","longitude":"34.55837660","flag":"1","wikiDataId":"Q2928204","user_create_id":null,"user_update_id":null,"country_code":"KE"},
{"id":"167","active":"1","created_at":"2019-10-05 23:18:36.000000","updated_at":"2021-10-11 12:38:13.000000","deleted_at":null,"name":"Uasin Gishu","country_id":"113","fips_code":"52","iso2":"44","type":"county","latitude":"0.55276380","longitude":"35.30272260","flag":"1","wikiDataId":"Q1121429","user_create_id":null,"user_update_id":null,"country_code":"KE"},
{"id":"168","active":"1","created_at":"2019-10-05 23:18:36.000000","updated_at":"2021-12-11 19:42:47.000000","deleted_at":null,"name":"Isiolo","country_id":"113","fips_code":"18","iso2":"09","type":"county","latitude":"0.35243520","longitude":"38.48499230","flag":"1","wikiDataId":"Q1499046","user_create_id":null,"user_update_id":null,"country_code":"KE"},
{"id":"169","active":"1","created_at":"2019-10-05 23:18:36.000000","updated_at":"2021-12-11 19:42:47.000000","deleted_at":null,"name":"Kisumu","country_id":"113","fips_code":"26","iso2":"17","type":"county","latitude":"-0.09170160","longitude":"34.76795680","flag":"1","wikiDataId":"Q1743809","user_create_id":null,"user_update_id":null,"country_code":"KE"},
{"id":"170","active":"1","created_at":"2019-10-05 23:18:36.000000","updated_at":"2021-12-11 19:42:47.000000","deleted_at":null,"name":"Kwale","country_id":"113","fips_code":"28","iso2":"19","type":"county","latitude":"-4.18161150","longitude":"39.46056120","flag":"1","wikiDataId":"Q952571","user_create_id":null,"user_update_id":null,"country_code":"KE"},
{"id":"171","active":"1","created_at":"2019-10-05 23:18:36.000000","updated_at":"2021-12-11 19:42:47.000000","deleted_at":null,"name":"Kilifi","country_id":"113","fips_code":"23","iso2":"14","type":"county","latitude":"-3.51065080","longitude":"39.90932690","flag":"1","wikiDataId":"Q1741307","user_create_id":null,"user_update_id":null,"country_code":"KE"},
{"id":"172","active":"1","created_at":"2019-10-05 23:18:36.000000","updated_at":"2021-12-11 19:42:47.000000","deleted_at":null,"name":"Narok","country_id":"113","fips_code":"41","iso2":"33","type":"county","latitude":"-1.10411100","longitude":"36.08934060","flag":"1","wikiDataId":"Q1852220","user_create_id":null,"user_update_id":null,"country_code":"KE"},
{"id":"173","active":"1","created_at":"2019-10-05 23:18:36.000000","updated_at":"2021-12-11 19:42:47.000000","deleted_at":null,"name":"Taita–Taveta","country_id":"113","fips_code":"41","iso2":"39","type":"county","latitude":"-3.31606870","longitude":"38.48499230","flag":"1","wikiDataId":"Q7193788","user_create_id":null,"user_update_id":null,"country_code":"KE"},
{"id":"174","active":"1","created_at":"2019-10-05 23:18:36.000000","updated_at":"2021-12-11 19:42:47.000000","deleted_at":null,"name":"Murang'a","country_id":"113","fips_code":"38","iso2":"29","type":"county","latitude":"-0.78392810","longitude":"37.04003390","flag":"1","wikiDataId":"Q1781723","user_create_id":null,"user_update_id":null,"country_code":"KE"},
{"id":"175","active":"1","created_at":"2019-10-05 23:18:36.000000","updated_at":"2021-12-11 19:42:47.000000","deleted_at":null,"name":"Nyeri","country_id":"113","fips_code":"44","iso2":"36","type":"county","latitude":"-0.41969150","longitude":"37.04003390","flag":"1","wikiDataId":"Q749665","user_create_id":null,"user_update_id":null,"country_code":"KE"},
{"id":"176","active":"1","created_at":"2019-10-05 23:18:36.000000","updated_at":"2021-12-11 19:42:47.000000","deleted_at":null,"name":"Baringo","country_id":"113","fips_code":"10","iso2":"01","type":"county","latitude":"0.85549880","longitude":"36.08934060","flag":"1","wikiDataId":"Q808201","user_create_id":null,"user_update_id":null,"country_code":"KE"},
{"id":"177","active":"1","created_at":"2019-10-05 23:18:36.000000","updated_at":"2021-12-11 19:42:47.000000","deleted_at":null,"name":"Wajir","country_id":"113","fips_code":"54","iso2":"46","type":"county","latitude":"1.63604750","longitude":"40.30886260","flag":"1","wikiDataId":"Q1852209","user_create_id":null,"user_update_id":null,"country_code":"KE"},
{"id":"178","active":"1","created_at":"2019-10-05 23:18:36.000000","updated_at":"2021-12-11 19:42:47.000000","deleted_at":null,"name":"Trans Nzoia","country_id":"113","fips_code":"50","iso2":"42","type":"county","latitude":"1.05666670","longitude":"34.95066250","flag":"1","wikiDataId":"Q1278653","user_create_id":null,"user_update_id":null,"country_code":"KE"},
{"id":"179","active":"1","created_at":"2019-10-05 23:18:36.000000","updated_at":"2021-12-11 19:42:47.000000","deleted_at":null,"name":"Machakos","country_id":"113","fips_code":"31","iso2":"22","type":"county","latitude":"-1.51768370","longitude":"37.26341460","flag":"1","wikiDataId":"Q1882639","user_create_id":null,"user_update_id":null,"country_code":"KE"},
{"id":"180","active":"1","created_at":"2019-10-05 23:18:36.000000","updated_at":"2021-12-11 19:42:47.000000","deleted_at":null,"name":"Tharaka-Nithi","country_id":"113","fips_code":"49","iso2":"41","type":"county","latitude":"-0.29648510","longitude":"37.72376780","flag":"1","wikiDataId":"Q2189432","user_create_id":null,"user_update_id":null,"country_code":"KE"},
{"id":"181","active":"1","created_at":"2019-10-05 23:18:36.000000","updated_at":"2021-12-11 19:42:47.000000","deleted_at":null,"name":"Siaya","country_id":"113","fips_code":"46","iso2":"38","type":"county","latitude":"-0.06173280","longitude":"34.24215970","flag":"1","wikiDataId":"Q3482913","user_create_id":null,"user_update_id":null,"country_code":"KE"},
{"id":"182","active":"1","created_at":"2019-10-05 23:18:36.000000","updated_at":"2021-12-11 19:42:47.000000","deleted_at":null,"name":"Mandera","country_id":"113","fips_code":"33","iso2":"24","type":"county","latitude":"3.57379910","longitude":"40.95868800","flag":"1","wikiDataId":"Q1477874","user_create_id":null,"user_update_id":null,"country_code":"KE"},
{"id":"183","active":"1","created_at":"2019-10-05 23:18:36.000000","updated_at":"2021-12-11 19:42:47.000000","deleted_at":null,"name":"Makueni","country_id":"113","fips_code":"32","iso2":"23","type":"county","latitude":"-2.25587340","longitude":"37.89366630","flag":"1","wikiDataId":"Q473717","user_create_id":null,"user_update_id":null,"country_code":"KE"},
{"id":"184","active":"1","created_at":"2019-10-05 23:18:36.000000","updated_at":"2021-12-11 19:42:47.000000","deleted_at":null,"name":"Migori","country_id":"113","fips_code":"36","iso2":"27","type":"county","latitude":"-0.93657020","longitude":"34.41982430","flag":"1","wikiDataId":"Q429955","user_create_id":null,"user_update_id":null,"country_code":"KE"},
{"id":"185","active":"1","created_at":"2019-10-05 23:18:36.000000","updated_at":"2021-12-11 19:42:47.000000","deleted_at":null,"name":"Nairobi City","country_id":"113","fips_code":"05","iso2":"30","type":"county","latitude":"-1.29206590","longitude":"36.82194620","flag":"1","wikiDataId":"Q3870","user_create_id":null,"user_update_id":null,"country_code":"KE"},
{"id":"186","active":"1","created_at":"2019-10-05 23:18:36.000000","updated_at":"2021-12-11 19:42:47.000000","deleted_at":null,"name":"Nyandarua","country_id":"113","fips_code":"43","iso2":"35","type":"county","latitude":"-0.18038550","longitude":"36.52296410","flag":"1","wikiDataId":"Q1714352","user_create_id":null,"user_update_id":null,"country_code":"KE"},
{"id":"187","active":"1","created_at":"2019-10-05 23:18:36.000000","updated_at":"2021-12-11 19:42:47.000000","deleted_at":null,"name":"Kericho","country_id":"113","fips_code":"21","iso2":"12","type":"county","latitude":"-0.18279130","longitude":"35.47819260","flag":"1","wikiDataId":"Q1739252","user_create_id":null,"user_update_id":null,"country_code":"KE"},
{"id":"188","active":"1","created_at":"2019-10-05 23:18:36.000000","updated_at":"2021-12-11 19:42:47.000000","deleted_at":null,"name":"Marsabit","country_id":"113","fips_code":"34","iso2":"25","type":"county","latitude":"2.44264030","longitude":"37.97845850","flag":"1","wikiDataId":"Q1323683","user_create_id":null,"user_update_id":null,"country_code":"KE"},
{"id":"189","active":"1","created_at":"2019-10-05 23:18:36.000000","updated_at":"2021-12-11 19:42:47.000000","deleted_at":null,"name":"Homa Bay","country_id":"113","fips_code":"17","iso2":"08","type":"county","latitude":"-0.62206550","longitude":"34.33103640","flag":"1","wikiDataId":"Q1625834","user_create_id":null,"user_update_id":null,"country_code":"KE"},
{"id":"190","active":"1","created_at":"2019-10-05 23:18:36.000000","updated_at":"2021-12-11 19:42:47.000000","deleted_at":null,"name":"Garissa","country_id":"113","fips_code":"16","iso2":"07","type":"county","latitude":"-0.45322930","longitude":"39.64609880","flag":"1","wikiDataId":"Q1494292","user_create_id":null,"user_update_id":null,"country_code":"KE"},
{"id":"191","active":"1","created_at":"2019-10-05 23:18:36.000000","updated_at":"2021-12-11 19:42:47.000000","deleted_at":null,"name":"Kajiado","country_id":"113","fips_code":"19","iso2":"10","type":"county","latitude":"-2.09807510","longitude":"36.78195050","flag":"1","wikiDataId":"Q285072","user_create_id":null,"user_update_id":null,"country_code":"KE"},
{"id":"192","active":"1","created_at":"2019-10-05 23:18:36.000000","updated_at":"2021-12-11 19:42:47.000000","deleted_at":null,"name":"Meru","country_id":"113","fips_code":"35","iso2":"26","type":"county","latitude":"0.35571740","longitude":"37.80876930","flag":"1","wikiDataId":"Q15045704","user_create_id":null,"user_update_id":null,"country_code":"KE"},
{"id":"193","active":"1","created_at":"2019-10-05 23:18:36.000000","updated_at":"2021-12-11 19:42:47.000000","deleted_at":null,"name":"Kiambu","country_id":"113","fips_code":"22","iso2":"13","type":"county","latitude":"-1.03137010","longitude":"36.86807910","flag":"1","wikiDataId":"Q2575594","user_create_id":null,"user_update_id":null,"country_code":"KE"},
{"id":"194","active":"1","created_at":"2019-10-05 23:18:36.000000","updated_at":"2021-12-11 19:42:47.000000","deleted_at":null,"name":"Mombasa","country_id":"113","fips_code":"37","iso2":"28","type":"county","latitude":"-3.97682910","longitude":"39.71371810","flag":"1","wikiDataId":"Q1112885","user_create_id":null,"user_update_id":null,"country_code":"KE"},
{"id":"195","active":"1","created_at":"2019-10-05 23:18:36.000000","updated_at":"2021-12-11 19:42:47.000000","deleted_at":null,"name":"Elgeyo-Marakwet","country_id":"113","fips_code":"37","iso2":"05","type":"county","latitude":"1.04982370","longitude":"35.47819260","flag":"1","wikiDataId":"Q15216433","user_create_id":null,"user_update_id":null,"country_code":"KE"},
{"id":"196","active":"1","created_at":"2019-10-05 23:18:36.000000","updated_at":"2021-12-11 19:42:47.000000","deleted_at":null,"name":"Vihiga","country_id":"113","fips_code":"53","iso2":"45","type":"county","latitude":"0.07675530","longitude":"34.70776650","flag":"1","wikiDataId":"Q1313202","user_create_id":null,"user_update_id":null,"country_code":"KE"},
{"id":"197","active":"1","created_at":"2019-10-05 23:18:36.000000","updated_at":"2021-12-11 19:42:47.000000","deleted_at":null,"name":"Nakuru","country_id":"113","fips_code":"39","iso2":"31","type":"county","latitude":"-0.30309880","longitude":"36.08002600","flag":"1","wikiDataId":"Q1852202","user_create_id":null,"user_update_id":null,"country_code":"KE"},
{"id":"198","active":"1","created_at":"2019-10-05 23:18:36.000000","updated_at":"2021-12-11 19:42:47.000000","deleted_at":null,"name":"Tana River","country_id":"113","fips_code":"48","iso2":"40","type":"county","latitude":"-1.65184680","longitude":"39.65181650","flag":"1","wikiDataId":"Q383150","user_create_id":null,"user_update_id":null,"country_code":"KE"},
{"id":"199","active":"1","created_at":"2019-10-05 23:18:36.000000","updated_at":"2021-12-11 19:42:47.000000","deleted_at":null,"name":"Turkana","country_id":"113","fips_code":"51","iso2":"43","type":"county","latitude":"3.31224770","longitude":"35.56578620","flag":"1","wikiDataId":"Q1633078","user_create_id":null,"user_update_id":null,"country_code":"KE"},
{"id":"200","active":"1","created_at":"2019-10-05 23:18:36.000000","updated_at":"2021-12-11 19:42:47.000000","deleted_at":null,"name":"Samburu","country_id":"113","fips_code":"45","iso2":"37","type":"county","latitude":"1.21545060","longitude":"36.95410700","flag":"1","wikiDataId":"Q2096419","user_create_id":null,"user_update_id":null,"country_code":"KE"},
{"id":"201","active":"1","created_at":"2019-10-05 23:18:36.000000","updated_at":"2021-12-11 19:42:47.000000","deleted_at":null,"name":"West Pokot","country_id":"113","fips_code":"55","iso2":"47","type":"county","latitude":"1.62100760","longitude":"35.39050460","flag":"1","wikiDataId":"Q590860","user_create_id":null,"user_update_id":null,"country_code":"KE"},
{"id":"202","active":"1","created_at":"2019-10-05 23:18:36.000000","updated_at":"2021-12-11 19:42:47.000000","deleted_at":null,"name":"Nyamira","country_id":"113","fips_code":"42","iso2":"34","type":"county","latitude":"-0.56694050","longitude":"34.93412340","flag":"1","wikiDataId":"Q1569613","user_create_id":null,"user_update_id":null,"country_code":"KE"},
{"id":"203","active":"1","created_at":"2019-10-05 23:18:36.000000","updated_at":"2021-12-11 19:42:47.000000","deleted_at":null,"name":"Bomet","country_id":"113","fips_code":"11","iso2":"02","type":"county","latitude":"-0.80150090","longitude":"35.30272260","flag":"1","wikiDataId":"Q891952","user_create_id":null,"user_update_id":null,"country_code":"KE"},
{"id":"204","active":"1","created_at":"2019-10-05 23:18:36.000000","updated_at":"2021-12-11 19:42:47.000000","deleted_at":null,"name":"Kitui","country_id":"113","fips_code":"27","iso2":"18","type":"county","latitude":"-1.68328220","longitude":"38.31657250","flag":"1","wikiDataId":"Q1722597","user_create_id":null,"user_update_id":null,"country_code":"KE"},
{"id":"205","active":"1","created_at":"2019-10-05 23:18:36.000000","updated_at":"2022-08-31 15:52:51.000000","deleted_at":null,"name":"Bié Province","country_id":"7","fips_code":"02","iso2":"BI","type":null,"latitude":"-12.57279070","longitude":"17.66888700","flag":"1","wikiDataId":"Q213977","user_create_id":null,"user_update_id":null,"country_code":"AO"},
{"id":"206","active":"1","created_at":"2019-10-05 23:18:36.000000","updated_at":"2022-08-31 15:52:51.000000","deleted_at":null,"name":"Huambo Province","country_id":"7","fips_code":"08","iso2":"HU","type":null,"latitude":"-12.52682210","longitude":"15.59433880","flag":"1","wikiDataId":"Q218848","user_create_id":null,"user_update_id":null,"country_code":"AO"},
{"id":"207","active":"1","created_at":"2019-10-05 23:18:36.000000","updated_at":"2022-08-31 15:52:51.000000","deleted_at":null,"name":"Zaire Province","country_id":"7","fips_code":"16","iso2":"ZA","type":null,"latitude":"-6.57334580","longitude":"13.17403480","flag":"1","wikiDataId":"Q196674","user_create_id":null,"user_update_id":null,"country_code":"AO"},
{"id":"208","active":"1","created_at":"2019-10-05 23:18:36.000000","updated_at":"2022-08-31 15:52:51.000000","deleted_at":null,"name":"Cunene Province","country_id":"7","fips_code":"07","iso2":"CN","type":null,"latitude":"-16.28022210","longitude":"16.15809370","flag":"1","wikiDataId":"Q216987","user_create_id":null,"user_update_id":null,"country_code":"AO"},
{"id":"209","active":"1","created_at":"2019-10-05 23:18:36.000000","updated_at":"2022-08-31 15:52:51.000000","deleted_at":null,"name":"Cuanza Sul","country_id":"7","fips_code":"06","iso2":"CU","type":null,"latitude":"-10.59519100","longitude":"15.40680790","flag":"1","wikiDataId":"Q216998","user_create_id":null,"user_update_id":null,"country_code":"AO"},
{"id":"210","active":"1","created_at":"2019-10-05 23:18:36.000000","updated_at":"2022-08-31 15:52:51.000000","deleted_at":null,"name":"Cuanza Norte Province","country_id":"7","fips_code":"05","iso2":"CN","type":null,"latitude":"-9.23985130","longitude":"14.65878210","flag":"1","wikiDataId":"Q216834","user_create_id":null,"user_update_id":null,"country_code":"AO"},
{"id":"211","active":"1","created_at":"2019-10-05 23:18:36.000000","updated_at":"2022-08-31 15:52:51.000000","deleted_at":null,"name":"Benguela Province","country_id":"7","fips_code":"01","iso2":"BG","type":null,"latitude":"-12.80037440","longitude":"13.91439900","flag":"1","wikiDataId":"Q212786","user_create_id":null,"user_update_id":null,"country_code":"AO"},
{"id":"212","active":"1","created_at":"2019-10-05 23:18:36.000000","updated_at":"2022-08-31 15:52:51.000000","deleted_at":null,"name":"Moxico Province","country_id":"7","fips_code":"14","iso2":"MO","type":null,"latitude":"-13.42935790","longitude":"20.33088140","flag":"1","wikiDataId":"Q173988","user_create_id":null,"user_update_id":null,"country_code":"AO"},
{"id":"213","active":"1","created_at":"2019-10-05 23:18:36.000000","updated_at":"2022-08-31 15:52:51.000000","deleted_at":null,"name":"Lunda Sul Province","country_id":"7","fips_code":"18","iso2":"LS","type":null,"latitude":"-10.28665780","longitude":"20.71224650","flag":"1","wikiDataId":"Q219648","user_create_id":null,"user_update_id":null,"country_code":"AO"},
{"id":"214","active":"1","created_at":"2019-10-05 23:18:36.000000","updated_at":"2022-08-31 15:52:51.000000","deleted_at":null,"name":"Bengo Province","country_id":"7","fips_code":"19","iso2":"BG","type":null,"latitude":"-9.10422570","longitude":"13.72891670","flag":"1","wikiDataId":"Q191299","user_create_id":null,"user_update_id":null,"country_code":"AO"},
{"id":"215","active":"1","created_at":"2019-10-05 23:18:36.000000","updated_at":"2022-08-31 15:52:51.000000","deleted_at":null,"name":"Luanda Province","country_id":"7","fips_code":"20","iso2":"LU","type":null,"latitude":"-9.03508800","longitude":"13.26634790","flag":"1","wikiDataId":"Q190066","user_create_id":null,"user_update_id":null,"country_code":"AO"},
{"id":"216","active":"1","created_at":"2019-10-05 23:18:36.000000","updated_at":"2022-08-31 15:52:51.000000","deleted_at":null,"name":"Lunda Norte Province","country_id":"7","fips_code":"17","iso2":"LN","type":null,"latitude":"-8.35250220","longitude":"19.18800470","flag":"1","wikiDataId":"Q214221","user_create_id":null,"user_update_id":null,"country_code":"AO"},
{"id":"217","active":"1","created_at":"2019-10-05 23:18:36.000000","updated_at":"2022-08-31 15:52:51.000000","deleted_at":null,"name":"Uíge Province","country_id":"7","fips_code":"15","iso2":"UI","type":null,"latitude":"-7.17367320","longitude":"15.40680790","flag":"1","wikiDataId":"Q216972","user_create_id":null,"user_update_id":null,"country_code":"AO"},
{"id":"218","active":"1","created_at":"2019-10-05 23:18:36.000000","updated_at":"2022-08-31 15:52:51.000000","deleted_at":null,"name":"Huíla Province","country_id":"7","fips_code":"09","iso2":"HU","type":null,"latitude":"-14.92805530","longitude":"14.65878210","flag":"1","wikiDataId":"Q214572","user_create_id":null,"user_update_id":null,"country_code":"AO"},
{"id":"219","active":"1","created_at":"2019-10-05 23:18:36.000000","updated_at":"2022-08-31 15:52:51.000000","deleted_at":null,"name":"Cuando Cubango Province","country_id":"7","fips_code":"04","iso2":"CC","type":null,"latitude":"-16.41808240","longitude":"18.80761950","flag":"1","wikiDataId":"Q215268","user_create_id":null,"user_update_id":null,"country_code":"AO"},
{"id":"220","active":"1","created_at":"2019-10-05 23:18:36.000000","updated_at":"2022-08-31 15:52:51.000000","deleted_at":null,"name":"Malanje Province","country_id":"7","fips_code":"12","iso2":"MA","type":null,"latitude":"-9.82511830","longitude":"16.91225100","flag":"1","wikiDataId":"Q219072","user_create_id":null,"user_update_id":null,"country_code":"AO"},
{"id":"221","active":"1","created_at":"2019-10-05 23:18:36.000000","updated_at":"2022-08-31 15:52:51.000000","deleted_at":null,"name":"Cabinda Province","country_id":"7","fips_code":"03","iso2":"CA","type":null,"latitude":"-5.02487490","longitude":"12.34638750","flag":"1","wikiDataId":"Q168787","user_create_id":null,"user_update_id":null,"country_code":"AO"},
{"id":"222","active":"1","created_at":"2019-10-05 23:18:36.000000","updated_at":"2022-08-31 15:52:51.000000","deleted_at":null,"name":"Gasa District","country_id":"26","fips_code":"23","iso2":"GA","type":null,"latitude":"28.01858860","longitude":"89.92532330","flag":"1","wikiDataId":"Q578294","user_create_id":null,"user_update_id":null,"country_code":"BT"},
{"id":"223","active":"1","created_at":"2019-10-05 23:18:36.000000","updated_at":"2022-08-31 15:52:51.000000","deleted_at":null,"name":"Tsirang District","country_id":"26","fips_code":"07","iso2":"21","type":null,"latitude":"27.03220700","longitude":"90.18696440","flag":"1","wikiDataId":"Q728922","user_create_id":null,"user_update_id":null,"country_code":"BT"},
{"id":"224","active":"1","created_at":"2019-10-05 23:18:36.000000","updated_at":"2022-08-31 15:52:51.000000","deleted_at":null,"name":"Wangdue Phodrang District","country_id":"26","fips_code":"07","iso2":"24","type":null,"latitude":"27.45260460","longitude":"90.06749280","flag":"1","wikiDataId":"Q728933","user_create_id":null,"user_update_id":null,"country_code":"BT"},
{"id":"225","active":"1","created_at":"2019-10-05 23:18:36.000000","updated_at":"2022-08-31 15:52:51.000000","deleted_at":null,"name":"Haa District","country_id":"26","fips_code":"10","iso2":"13","type":null,"latitude":"27.26516690","longitude":"89.17059980","flag":"1","wikiDataId":"Q754448","user_create_id":null,"user_update_id":null,"country_code":"BT"},
{"id":"226","active":"1","created_at":"2019-10-05 23:18:36.000000","updated_at":"2022-08-31 15:52:51.000000","deleted_at":null,"name":"Zhemgang District","country_id":"26","fips_code":"18","iso2":"34","type":null,"latitude":"27.07697500","longitude":"90.82940020","flag":"1","wikiDataId":"Q197564","user_create_id":null,"user_update_id":null,"country_code":"BT"},
{"id":"227","active":"1","created_at":"2019-10-05 23:18:36.000000","updated_at":"2022-08-31 15:52:51.000000","deleted_at":null,"name":"Lhuntse District","country_id":"26","fips_code":"11","iso2":"44","type":null,"latitude":"27.82649890","longitude":"91.13530200","flag":"1","wikiDataId":"Q598793","user_create_id":null,"user_update_id":null,"country_code":"BT"},
{"id":"228","active":"1","created_at":"2019-10-05 23:18:36.000000","updated_at":"2022-08-31 15:52:51.000000","deleted_at":null,"name":"Punakha District","country_id":"26","fips_code":"15","iso2":"23","type":null,"latitude":"27.69037160","longitude":"89.88793040","flag":"1","wikiDataId":"Q587062","user_create_id":null,"user_update_id":null,"country_code":"BT"},
{"id":"229","active":"1","created_at":"2019-10-05 23:18:36.000000","updated_at":"2022-08-31 15:52:51.000000","deleted_at":null,"name":"Trashigang District","country_id":"26","fips_code":"19","iso2":"41","type":null,"latitude":"27.25667950","longitude":"91.75388170","flag":"1","wikiDataId":"Q652773","user_create_id":null,"user_update_id":null,"country_code":"BT"},
{"id":"230","active":"1","created_at":"2019-10-05 23:18:36.000000","updated_at":"2022-08-31 15:52:51.000000","deleted_at":null,"name":"Paro District","country_id":"26","fips_code":"13","iso2":"11","type":null,"latitude":"27.42859490","longitude":"89.41665160","flag":"1","wikiDataId":"Q652784","user_create_id":null,"user_update_id":null,"country_code":"BT"},
{"id":"231","active":"1","created_at":"2019-10-05 23:18:36.000000","updated_at":"2022-08-31 15:52:51.000000","deleted_at":null,"name":"Dagana District","country_id":"26","fips_code":"08","iso2":"22","type":null,"latitude":"27.03228610","longitude":"89.88793040","flag":"1","wikiDataId":"Q735146","user_create_id":null,"user_update_id":null,"country_code":"BT"},
{"id":"232","active":"1","created_at":"2019-10-05 23:18:36.000000","updated_at":"2022-08-31 15:52:51.000000","deleted_at":null,"name":"Chukha District","country_id":"26","fips_code":"06","iso2":"12","type":null,"latitude":"27.07843040","longitude":"89.47421770","flag":"1","wikiDataId":"Q652754","user_create_id":null,"user_update_id":null,"country_code":"BT"},
{"id":"233","active":"1","created_at":"2019-10-05 23:18:36.000000","updated_at":"2022-08-31 15:52:51.000000","deleted_at":null,"name":"Bumthang District","country_id":"26","fips_code":"05","iso2":"33","type":null,"latitude":"27.64183900","longitude":"90.67730460","flag":"1","wikiDataId":"Q463242","user_create_id":null,"user_update_id":null,"country_code":"BT"},
{"id":"234","active":"1","created_at":"2019-10-05 23:18:36.000000","updated_at":"2022-08-31 15:52:51.000000","deleted_at":null,"name":"Thimphu District","country_id":"26","fips_code":"20","iso2":"15","type":null,"latitude":"27.47122160","longitude":"89.63390410","flag":"1","wikiDataId":"Q254889","user_create_id":null,"user_update_id":null,"country_code":"BT"},
{"id":"235","active":"1","created_at":"2019-10-05 23:18:36.000000","updated_at":"2022-08-31 15:52:51.000000","deleted_at":null,"name":"Mongar District","country_id":"26","fips_code":"12","iso2":"42","type":null,"latitude":"27.26170590","longitude":"91.28910360","flag":"1","wikiDataId":"Q389734","user_create_id":null,"user_update_id":null,"country_code":"BT"},
{"id":"236","active":"1","created_at":"2019-10-05 23:18:36.000000","updated_at":"2022-08-31 15:52:51.000000","deleted_at":null,"name":"Samdrup Jongkhar District","country_id":"26","fips_code":"17","iso2":"45","type":null,"latitude":"26.80356820","longitude":"91.50392070","flag":"1","wikiDataId":"Q728929","user_create_id":null,"user_update_id":null,"country_code":"BT"},
{"id":"237","active":"1","created_at":"2019-10-05 23:18:36.000000","updated_at":"2022-08-31 15:52:51.000000","deleted_at":null,"name":"Pemagatshel District","country_id":"26","fips_code":"14","iso2":"43","type":null,"latitude":"27.00238200","longitude":"91.34692470","flag":"1","wikiDataId":"Q167279","user_create_id":null,"user_update_id":null,"country_code":"BT"},
{"id":"238","active":"1","created_at":"2019-10-05 23:18:36.000000","updated_at":"2022-08-31 15:52:51.000000","deleted_at":null,"name":"Trongsa District","country_id":"26","fips_code":"14","iso2":"32","type":null,"latitude":"27.50022690","longitude":"90.50806340","flag":"1","wikiDataId":"Q728938","user_create_id":null,"user_update_id":null,"country_code":"BT"},
{"id":"239","active":"1","created_at":"2019-10-05 23:18:36.000000","updated_at":"2022-08-31 15:52:51.000000","deleted_at":null,"name":"Samtse District","country_id":"26","fips_code":"16","iso2":"14","type":null,"latitude":"27.02918320","longitude":"89.05615320","flag":"1","wikiDataId":"Q728917","user_create_id":null,"user_update_id":null,"country_code":"BT"},
{"id":"240","active":"1","created_at":"2019-10-05 23:18:36.000000","updated_at":"2022-08-31 15:52:51.000000","deleted_at":null,"name":"Sarpang District","country_id":"26","fips_code":"09","iso2":"31","type":null,"latitude":"26.93730410","longitude":"90.48799160","flag":"1","wikiDataId":"Q728947","user_create_id":null,"user_update_id":null,"country_code":"BT"},
{"id":"241","active":"1","created_at":"2019-10-05 23:18:36.000000","updated_at":"2022-08-31 15:52:51.000000","deleted_at":null,"name":"Tombouctou Region","country_id":"134","fips_code":"08","iso2":"6","type":null,"latitude":"21.05267060","longitude":"-3.74350900","flag":"1","wikiDataId":"Q339462","user_create_id":null,"user_update_id":null,"country_code":"ML"},
{"id":"242","active":"1","created_at":"2019-10-05 23:18:36.000000","updated_at":"2022-08-31 15:52:51.000000","deleted_at":null,"name":"Ségou Region","country_id":"134","fips_code":"05","iso2":"4","type":null,"latitude":"13.83944560","longitude":"-6.06791940","flag":"1","wikiDataId":"Q656845","user_create_id":null,"user_update_id":null,"country_code":"ML"},
{"id":"243","active":"1","created_at":"2019-10-05 23:18:36.000000","updated_at":"2022-08-31 15:52:51.000000","deleted_at":null,"name":"Koulikoro Region","country_id":"134","fips_code":"07","iso2":"2","type":null,"latitude":"13.80180740","longitude":"-7.43813550","flag":"1","wikiDataId":"Q287789","user_create_id":null,"user_update_id":null,"country_code":"ML"},
{"id":"244","active":"1","created_at":"2019-10-05 23:18:36.000000","updated_at":"2022-08-31 15:52:51.000000","deleted_at":null,"name":"Ménaka Region","country_id":"134","fips_code":"07","iso2":"9","type":null,"latitude":"15.91564210","longitude":"2.39617400","flag":"1","wikiDataId":"Q3455550","user_create_id":null,"user_update_id":null,"country_code":"ML"},
{"id":"245","active":"1","created_at":"2019-10-05 23:18:36.000000","updated_at":"2022-08-31 15:52:51.000000","deleted_at":null,"name":"Kayes Region","country_id":"134","fips_code":"03","iso2":"1","type":null,"latitude":"14.08183080","longitude":"-9.90181310","flag":"1","wikiDataId":"Q332113","user_create_id":null,"user_update_id":null,"country_code":"ML"},
{"id":"246","active":"1","created_at":"2019-10-05 23:18:36.000000","updated_at":"2022-08-31 15:52:51.000000","deleted_at":null,"name":"Bamako","country_id":"134","fips_code":"01","iso2":"BK","type":null,"latitude":"12.63923160","longitude":"-8.00288920","flag":"1","wikiDataId":"Q3703","user_create_id":null,"user_update_id":null,"country_code":"ML"},
{"id":"247","active":"1","created_at":"2019-10-05 23:18:36.000000","updated_at":"2022-08-31 15:52:51.000000","deleted_at":null,"name":"Sikasso Region","country_id":"134","fips_code":"06","iso2":"3","type":null,"latitude":"10.89051860","longitude":"-7.43813550","flag":"1","wikiDataId":"Q461298","user_create_id":null,"user_update_id":null,"country_code":"ML"},
{"id":"248","active":"1","created_at":"2019-10-05 23:18:36.000000","updated_at":"2022-08-31 15:52:51.000000","deleted_at":null,"name":"Mopti Region","country_id":"134","fips_code":"04","iso2":"5","type":null,"latitude":"14.63380390","longitude":"-3.41955270","flag":"1","wikiDataId":"Q214155","user_create_id":null,"user_update_id":null,"country_code":"ML"},
{"id":"249","active":"1","created_at":"2019-10-05 23:18:36.000000","updated_at":"2022-08-31 15:52:51.000000","deleted_at":null,"name":"Taoudénit Region","country_id":"134","fips_code":"04","iso2":"10","type":null,"latitude":"22.67641320","longitude":"-3.97891430","flag":"1","wikiDataId":"Q2424657","user_create_id":null,"user_update_id":null,"country_code":"ML"},
{"id":"250","active":"1","created_at":"2019-10-05 23:18:36.000000","updated_at":"2022-08-31 15:52:51.000000","deleted_at":null,"name":"Kidal Region","country_id":"134","fips_code":"10","iso2":"8","type":null,"latitude":"18.79868320","longitude":"1.83183340","flag":"1","wikiDataId":"Q338988","user_create_id":null,"user_update_id":null,"country_code":"ML"},
{"id":"251","active":"1","created_at":"2019-10-05 23:18:36.000000","updated_at":"2022-08-31 15:52:51.000000","deleted_at":null,"name":"Gao Region","country_id":"134","fips_code":"09","iso2":"7","type":null,"latitude":"16.90663320","longitude":"1.52086240","flag":"1","wikiDataId":"Q332392","user_create_id":null,"user_update_id":null,"country_code":"ML"},
{"id":"252","active":"1","created_at":"2019-10-05 23:18:36.000000","updated_at":"2022-08-31 15:52:51.000000","deleted_at":null,"name":"Southern Province","country_id":"183","fips_code":"15","iso2":"05","type":null,"latitude":null,"longitude":null,"flag":"1","wikiDataId":"Q853162","user_create_id":null,"user_update_id":null,"country_code":"RW"},
{"id":"253","active":"1","created_at":"2019-10-05 23:18:36.000000","updated_at":"2022-08-31 15:52:51.000000","deleted_at":null,"name":"Western Province","country_id":"183","fips_code":"14","iso2":"04","type":null,"latitude":null,"longitude":null,"flag":"1","wikiDataId":"Q737354","user_create_id":null,"user_update_id":null,"country_code":"RW"},
{"id":"254","active":"1","created_at":"2019-10-05 23:18:36.000000","updated_at":"2022-08-31 15:52:51.000000","deleted_at":null,"name":"Eastern Province","country_id":"183","fips_code":"11","iso2":"02","type":null,"latitude":null,"longitude":null,"flag":"1","wikiDataId":"Q853152","user_create_id":null,"user_update_id":null,"country_code":"RW"},
{"id":"255","active":"1","created_at":"2019-10-05 23:18:36.000000","updated_at":"2022-08-31 15:52:51.000000","deleted_at":null,"name":"Kigali district","country_id":"183","fips_code":"12","iso2":"01","type":null,"latitude":"-1.94407270","longitude":"30.06188510","flag":"1","wikiDataId":"Q167196","user_create_id":null,"user_update_id":null,"country_code":"RW"},
{"id":"256","active":"1","created_at":"2019-10-05 23:18:36.000000","updated_at":"2022-08-31 15:52:51.000000","deleted_at":null,"name":"Northern Province","country_id":"183","fips_code":"13","iso2":"03","type":null,"latitude":null,"longitude":null,"flag":"1","wikiDataId":"Q845807","user_create_id":null,"user_update_id":null,"country_code":"RW"},
{"id":"257","active":"1","created_at":"2019-10-05 23:18:36.000000","updated_at":"2022-08-31 15:52:51.000000","deleted_at":null,"name":"Belize District","country_id":"23","fips_code":"01","iso2":"BZ","type":null,"latitude":"17.56776790","longitude":"-88.40160410","flag":"1","wikiDataId":"Q506056","user_create_id":null,"user_update_id":null,"country_code":"BZ"},
{"id":"258","active":"1","created_at":"2019-10-05 23:18:37.000000","updated_at":"2022-08-31 15:52:51.000000","deleted_at":null,"name":"Stann Creek District","country_id":"23","fips_code":"05","iso2":"SC","type":null,"latitude":"16.81166310","longitude":"-88.40160410","flag":"1","wikiDataId":"Q502652","user_create_id":null,"user_update_id":null,"country_code":"BZ"},
{"id":"259","active":"1","created_at":"2019-10-05 23:18:37.000000","updated_at":"2022-08-31 15:52:51.000000","deleted_at":null,"name":"Corozal District","country_id":"23","fips_code":"03","iso2":"CZ","type":null,"latitude":"18.13492380","longitude":"-88.24611830","flag":"1","wikiDataId":"Q512273","user_create_id":null,"user_update_id":null,"country_code":"BZ"},
{"id":"260","active":"1","created_at":"2019-10-05 23:18:37.000000","updated_at":"2022-08-31 15:52:51.000000","deleted_at":null,"name":"Toledo District","country_id":"23","fips_code":"06","iso2":"TO","type":null,"latitude":"16.24919230","longitude":"-88.86469800","flag":"1","wikiDataId":"Q506049","user_create_id":null,"user_update_id":null,"country_code":"BZ"},
{"id":"261","active":"1","created_at":"2019-10-05 23:18:37.000000","updated_at":"2022-08-31 15:52:51.000000","deleted_at":null,"name":"Orange Walk District","country_id":"23","fips_code":"04","iso2":"OW","type":null,"latitude":"17.76035300","longitude":"-88.86469800","flag":"1","wikiDataId":"Q506036","user_create_id":null,"user_update_id":null,"country_code":"BZ"},
{"id":"262","active":"1","created_at":"2019-10-05 23:18:37.000000","updated_at":"2022-08-31 15:52:51.000000","deleted_at":null,"name":"Cayo District","country_id":"23","fips_code":"02","iso2":"CY","type":null,"latitude":"17.09844450","longitude":"-88.94138650","flag":"1","wikiDataId":"Q508773","user_create_id":null,"user_update_id":null,"country_code":"BZ"},
{"id":"263","active":"1","created_at":"2019-10-05 23:18:37.000000","updated_at":"2022-08-31 15:52:51.000000","deleted_at":null,"name":"Príncipe Province","country_id":"193","fips_code":"01","iso2":"P","type":null,"latitude":"1.61393810","longitude":"7.40569280","flag":"1","wikiDataId":"Q2366966","user_create_id":null,"user_update_id":null,"country_code":"ST"},
{"id":"264","active":"1","created_at":"2019-10-05 23:18:37.000000","updated_at":"2022-08-31 15:52:51.000000","deleted_at":null,"name":"São Tomé Province","country_id":"193","fips_code":"02","iso2":"S","type":null,"latitude":"0.33019240","longitude":"6.73334300","flag":"1","wikiDataId":"Q6710363","user_create_id":null,"user_update_id":null,"country_code":"ST"},
{"id":"265","active":"1","created_at":"2019-10-05 23:18:37.000000","updated_at":"2022-08-31 15:52:51.000000","deleted_at":null,"name":"Havana Province","country_id":"56","fips_code":"02","iso2":"03","type":null,"latitude":"23.05406980","longitude":"-82.34518900","flag":"1","wikiDataId":"Q12588","user_create_id":null,"user_update_id":null,"country_code":"CU"},
{"id":"266","active":"1","created_at":"2019-10-05 23:18:37.000000","updated_at":"2022-08-31 15:52:51.000000","deleted_at":null,"name":"Santiago de Cuba Province","country_id":"56","fips_code":"15","iso2":"13","type":null,"latitude":"20.23976820","longitude":"-75.99276520","flag":"1","wikiDataId":"Q234200","user_create_id":null,"user_update_id":null,"country_code":"CU"},
{"id":"267","active":"1","created_at":"2019-10-05 23:18:37.000000","updated_at":"2022-08-31 15:52:51.000000","deleted_at":null,"name":"Sancti Spíritus Province","country_id":"56","fips_code":"14","iso2":"07","type":null,"latitude":"21.99382140","longitude":"-79.47038850","flag":"1","wikiDataId":"Q115441","user_create_id":null,"user_update_id":null,"country_code":"CU"},
{"id":"268","active":"1","created_at":"2019-10-05 23:18:37.000000","updated_at":"2022-08-31 15:52:51.000000","deleted_at":null,"name":"Granma Province","country_id":"56","fips_code":"09","iso2":"12","type":null,"latitude":"20.38449020","longitude":"-76.64127120","flag":"1","wikiDataId":"Q115046","user_create_id":null,"user_update_id":null,"country_code":"CU"},
{"id":"269","active":"1","created_at":"2019-10-05 23:18:37.000000","updated_at":"2022-08-31 15:52:51.000000","deleted_at":null,"name":"Mayabeque Province","country_id":"56","fips_code":"MA","iso2":"16","type":null,"latitude":"22.89265290","longitude":"-81.95348150","flag":"1","wikiDataId":"Q115310","user_create_id":null,"user_update_id":null,"country_code":"CU"},
{"id":"270","active":"1","created_at":"2019-10-05 23:18:37.000000","updated_at":"2022-08-31 15:52:51.000000","deleted_at":null,"name":"Pinar del Río Province","country_id":"56","fips_code":"01","iso2":"01","type":null,"latitude":"22.40762560","longitude":"-83.84730150","flag":"1","wikiDataId":"Q115497","user_create_id":null,"user_update_id":null,"country_code":"CU"},
{"id":"271","active":"1","created_at":"2019-10-05 23:18:37.000000","updated_at":"2022-08-31 15:52:51.000000","deleted_at":null,"name":"Isla de la Juventud","country_id":"56","fips_code":"04","iso2":"99","type":null,"latitude":"21.70847370","longitude":"-82.82202320","flag":"1","wikiDataId":"Q115027","user_create_id":null,"user_update_id":null,"country_code":"CU"},
{"id":"272","active":"1","created_at":"2019-10-05 23:18:37.000000","updated_at":"2022-08-31 15:52:51.000000","deleted_at":null,"name":"Holguín Province","country_id":"56","fips_code":"12","iso2":"11","type":null,"latitude":"20.78378930","longitude":"-75.80690820","flag":"1","wikiDataId":"Q115302","user_create_id":null,"user_update_id":null,"country_code":"CU"},
{"id":"273","active":"1","created_at":"2019-10-05 23:18:37.000000","updated_at":"2022-08-31 15:52:51.000000","deleted_at":null,"name":"Villa Clara Province","country_id":"56","fips_code":"16","iso2":"05","type":null,"latitude":"22.49372040","longitude":"-79.91927020","flag":"1","wikiDataId":"Q115434","user_create_id":null,"user_update_id":null,"country_code":"CU"},
{"id":"274","active":"1","created_at":"2019-10-05 23:18:37.000000","updated_at":"2022-08-31 15:52:51.000000","deleted_at":null,"name":"Las Tunas Province","country_id":"56","fips_code":"13","iso2":"10","type":null,"latitude":"21.06051620","longitude":"-76.91820970","flag":"1","wikiDataId":"Q115334","user_create_id":null,"user_update_id":null,"country_code":"CU"},
{"id":"275","active":"1","created_at":"2019-10-05 23:18:37.000000","updated_at":"2022-08-31 15:52:51.000000","deleted_at":null,"name":"Ciego de Ávila Province","country_id":"56","fips_code":"07","iso2":"08","type":null,"latitude":"21.93295150","longitude":"-78.56608520","flag":"1","wikiDataId":"Q220692","user_create_id":null,"user_update_id":null,"country_code":"CU"},
{"id":"276","active":"1","created_at":"2019-10-05 23:18:37.000000","updated_at":"2022-08-31 15:52:51.000000","deleted_at":null,"name":"Artemisa Province","country_id":"56","fips_code":"AR","iso2":"15","type":null,"latitude":"22.75229030","longitude":"-82.99316070","flag":"1","wikiDataId":"Q115325","user_create_id":null,"user_update_id":null,"country_code":"CU"},
{"id":"277","active":"1","created_at":"2019-10-05 23:18:37.000000","updated_at":"2022-08-31 15:52:51.000000","deleted_at":null,"name":"Matanzas Province","country_id":"56","fips_code":"03","iso2":"04","type":null,"latitude":"22.57671230","longitude":"-81.33994140","flag":"1","wikiDataId":"Q115438","user_create_id":null,"user_update_id":null,"country_code":"CU"},